ID_RESTAURANTE,NOMBRE_RESTAURANTE,ZONA,NUM_EDIFICIO,CALLE,CODIGO_POSTAL,LATITUD,LONGITUD,COCINA,FECHA,VIOLACION,GRAVEDAD,PUNTAJE,CALIFICACION,ID_EDIFICIO,TIPO_COMPETENCIA
40359480,1 EAST 66TH STREET KITCHEN,Manhattan,1,EAST   66 STREET,10065,40.76854691423,-73.96958057845,American,2025-12-02,"Dishwashing and ware washing: Cleaning and sanitizing of tableware, including dishes, utensils, and equipment deficient.",Not Critical,10.0,A,1041159,Indirecta (Tráfico)
40362264,P & S DELI GROCERY,Manhattan,730,COLUMBUS AVENUE,10025,40.79262063589,-73.96770961573,American,2025-03-27,"Wiping cloths not stored clean and dry, or in a sanitizing solution, between uses.",Critical,13.0,A,1082743,Indirecta (Tráfico)
40362274,ANGELIKA FILM CENTER,Manhattan,18,WEST HOUSTON STREET,10012,40.72574361744,-73.99747810759,American,2023-06-21,"Single service article not provided. Single service article reused or not protected from contamination when transported, stored, dispensed. Drinking straws not completely enclosed in wrapper or dispensed from a sanitary device.",Not Critical,11.0,A,1008240,Indirecta (Tráfico)
40363298,CAFE METRO,Manhattan,625,8 AVENUE,10018,40.75618542308,-73.99056473379,American,2025-05-01,"Food contact surface not properly washed, rinsed and sanitized after each use and following any activity when contamination may have occurred.",Critical,13.0,A,1083268,Indirecta (Tráfico)
40364347,METROPOLITAN CLUB,Manhattan,1,EAST   60 STREET,10022,40.76479552185,-73.97230783434,American,2024-10-29,"Food contact surface not properly washed, rinsed and sanitized after each use and following any activity when contamination may have occurred.",Critical,8.0,A,1081206,Indirecta (Tráfico)
40364373,ISLE OF CAPRI,Manhattan,1028,3 AVENUE,10065,40.76270773611,-73.96574957601,Italian,2024-09-10,"Dishwashing and ware washing: Cleaning and sanitizing of tableware, including dishes, utensils, and equipment deficient.",Not Critical,26.0,Sin Calificación,1041931,Indirecta (Tráfico)
40364389,OLD TOWN BAR,Manhattan,45,EAST   18 STREET,10003,40.73759507351,-73.98964720852,American,2025-02-26,"Food, supplies, or equipment not protected from potential source of contamination during storage, preparation, transportation, display, service or from customer’s refillable, reusable container. Condiments not in single-service containers or dispensed directly by the vendor.",Critical,10.0,A,1016150,Indirecta (Tráfico)
40364439,SEVILLA,Manhattan,62,CHARLES STREET,10014,40.73490837812,-74.00297328507,Spanish,2025-08-21,"Dishwashing and ware washing: Cleaning and sanitizing of tableware, including dishes, utensils, and equipment deficient.",Not Critical,39.0,Sin Calificación,1010824,Indirecta (Tráfico)
40364443,CRIMINAL COURT BLDG CAFETERIA,Manhattan,100,CENTRE STREET,10013,40.71607656565,-74.00142489623,American,2025-08-26,"Non-food contact surface or equipment made of unacceptable material, not kept clean, or not properly sealed, raised, spaced or movable to allow accessibility for cleaning on all sides, above and underneath the unit.",Not Critical,9.0,A,1079000,Indirecta (Tráfico)
40364467,NYAC MAIN DINING ROOM,Manhattan,180,CENTRAL PARK SOUTH,10019,40.76671822299,-73.97873659477,American,2025-01-29,"Non-food contact surface or equipment made of unacceptable material, not kept clean, or not properly sealed, raised, spaced or movable to allow accessibility for cleaning on all sides, above and underneath the unit.",Not Critical,4.0,A,1023750,Indirecta (Tráfico)
40364518,7B BAR,Manhattan,108,AVENUE B,10009,40.72498456242,-73.98128264905,American,2025-06-30,"Food contact surface not properly washed, rinsed and sanitized after each use and following any activity when contamination may have occurred.",Critical,10.0,A,1005094,Indirecta (Tráfico)
40364531,CAFE ATELIER (ART STUDENTS LEAGUE),Manhattan,215,WEST   57 STREET,10019,40.76588694132,-73.98089566547,American,2025-03-17,"Non-food contact surface or equipment made of unacceptable material, not kept clean, or not properly sealed, raised, spaced or movable to allow accessibility for cleaning on all sides, above and underneath the unit.",Not Critical,9.0,A,1080846,Indirecta (Tráfico)
40364572,DONOHUE'S STEAK HOUSE,Manhattan,845,LEXINGTON AVENUE,10065,40.76551288451,-73.965769788,Steakhouse,2024-10-23,"Dishwashing and ware washing: Cleaning and sanitizing of tableware, including dishes, utensils, and equipment deficient.",Not Critical,10.0,A,1042358,Indirecta (Tráfico)
40364715,OLD HOMESTEAD,Manhattan,56,9 AVENUE,10011,40.74137222436,-74.0050377551,American,2023-03-23,"Garbage receptacle not pest or water resistant, with tight-fitting lids, and covered except while in active use. Garbage receptacle and cover not cleaned after emptying and prior to reuse. Garbage, refuse and other solid and liquid waste not collected, stored, removed and disposed of so as to prevent a nuisance.",Not Critical,12.0,A,1013042,Indirecta (Tráfico)
40365166,CORNER BISTRO,Manhattan,331,WEST    4 STREET,10014,40.73792484731,-74.00386111603,American,2025-06-10,"Establishment is not free of harborage or conditions conducive to rodents, insects or other pests.",Not Critical,10.0,A,1011036,Indirecta (Tráfico)
40365239,DORRIAN'S RED HAND,Manhattan,1616,2 AVENUE,10028,40.77640496626,-73.95280206566,American,2025-11-25,"Establishment is not free of harborage or conditions conducive to rodents, insects or other pests.",Not Critical,13.0,A,1049947,Indirecta (Tráfico)
40365288,KEATS,Manhattan,842,2 AVENUE,10017,40.75159837057,-73.97089490105,American,2024-10-09,"Dishwashing and ware washing: Cleaning and sanitizing of tableware, including dishes, utensils, and equipment deficient.",Not Critical,12.0,A,1038769,Indirecta (Tráfico)
40365387,ARTURO'S,Manhattan,106,WEST HOUSTON STREET,10012,40.72723405204,-74.00051593521,Italian,2023-03-20,"Non-food contact surface or equipment made of unacceptable material, not kept clean, or not properly sealed, raised, spaced or movable to allow accessibility for cleaning on all sides, above and underneath the unit.",Not Critical,7.0,A,1008279,Indirecta (Tráfico)
40365577,V & T PIZZERIA,Manhattan,1024,AMSTERDAM AVENUE,10025,40.80332942053,-73.96361191495,Italian,2024-09-18,Evidence of mice or live mice in establishment's food or non-food areas.,Critical,33.0,Sin Calificación,1056908,Indirecta (Tráfico)
40365644,JOE ALLEN,Manhattan,326,WEST   46 STREET,10036,40.76017889667,-73.98888203174,American,2025-01-28,Personal cleanliness is inadequate. Outer garment soiled with possible contaminant. Effective hair restraint not worn where required. Jewelry worn on hands or arms. Fingernail polish worn or fingernails not kept clean and trimmed.,Critical,12.0,A,1025016,Indirecta (Tráfico)
40365789,PATSY'S ITALIAN RESTAURANT,Manhattan,236,WEST   56 STREET,10019,40.76561819528,-73.98239751366,Italian,2025-08-12,"Design, construction, materials used or maintenance of food contact surface improper. Surface not easily cleanable, sanitized and maintained.",Not Critical,17.0,Sin Calificación,1024883,Indirecta (Tráfico)
40365882,NEW YORK PIZZA SUPREMA,Manhattan,413,8 AVENUE,10001,40.75003195155,-73.99504098942,Pizza,2025-04-14,"Food, supplies, or equipment not protected from potential source of contamination during storage, preparation, transportation, display, service or from customer’s refillable, reusable container. Condiments not in single-service containers or dispensed directly by the vendor.",Critical,13.0,A,1013536,Indirecta (Tráfico)
40365942,HOP KEE,Manhattan,21,MOTT STREET,10013,40.71436383248,-73.9987843604,Chinese,2025-01-06,Cold TCS food item held above 41 °F; smoked or processed fish held above 38 °F; intact raw eggs held above 45 °F; or reduced oxygen packaged (ROP) TCS foods held above required temperatures except during active necessary preparation.,Critical,10.0,A,1001821,Indirecta (Tráfico)
40365968,NANCY WHISKEY PUB,Manhattan,1,LISPENARD STREET,10013,40.72053945767,-74.00501092128,American,2024-09-24,"Filth flies or food/refuse/sewage associated with (FRSA) flies or other nuisance pests in establishment’s food and/or non-food areas. FRSA flies include house flies, blow flies, bottle flies, flesh flies, drain flies, Phorid flies and fruit flies.",Critical,10.0,A,1002726,Indirecta (Tráfico)
40366473,TIO PEPE,Manhattan,168,WEST    4 STREET,10014,40.7320565971,-74.00144328026,Seafood,2023-12-05,Evidence of mice or live mice in establishment's food or non-food areas.,Critical,12.0,A,1010145,Indirecta (Tráfico)
40366716,SHUN LEE PALACE,Manhattan,155,EAST   55 STREET,10022,40.75937665307,-73.96948371139,Chinese,2023-06-06,"Non-food contact surface or equipment made of unacceptable material, not kept clean, or not properly sealed, raised, spaced or movable to allow accessibility for cleaning on all sides, above and underneath the unit.",Not Critical,11.0,A,1036515,Indirecta (Tráfico)
40367189,KENN'S BROOME STREET BAR,Manhattan,363,WEST BROADWAY,10013,40.72311686096,-74.00312428099,American,2025-11-12,"Food contact surface not properly washed, rinsed and sanitized after each use and following any activity when contamination may have occurred.",Critical,8.0,A,1007063,Indirecta (Tráfico)
40367241,JG MELON,Manhattan,1291,3 AVENUE,10021,40.77119250092,-73.95953181829,American,2025-01-28,Anti-siphonage or back-flow prevention device not provided where required; equipment or floor not properly drained; sewage disposal system in disrepair or not functioning properly. Condensation or liquid waste improperly disposed of.,Not Critical,9.0,A,1044019,Indirecta (Tráfico)
40367338,"TAP ROOM, GRAB & GO",Manhattan,180,CENTRAL PARK SOUTH,10019,40.76671822299,-73.97873659477,American,2024-12-10,"Non-food contact surface or equipment made of unacceptable material, not kept clean, or not properly sealed, raised, spaced or movable to allow accessibility for cleaning on all sides, above and underneath the unit.",Not Critical,7.0,A,1023750,Indirecta (Tráfico)
40367339,COCKTAIL ROOM (NYAC),Manhattan,180,CENTRAL PARK SOUTH,10019,40.76671822299,-73.97873659477,American,2023-12-14,Wash hands sign not posted near or above hand washing sink.,Not Critical,2.0,A,1023750,Indirecta (Tráfico)
40367365,THE FLAME DINER,Manhattan,893,9 AVENUE,10019,40.76843198493,-73.9853426732,American,2025-12-11,Hot TCS food item not held at or above 140 °F.,Critical,11.0,A,1026889,Indirecta (Tráfico)
40367373,JACKSON HOLE,Manhattan,232,EAST   64 STREET,10065,40.76430996743,-73.96345642747,Hamburgers,2024-12-09,"Single service article not provided. Single service article reused or not protected from contamination when transported, stored, dispensed. Drinking straws not completely enclosed in wrapper or dispensed from a sanitary device.",Not Critical,13.0,A,1043865,Indirecta (Tráfico)
40367728,MIMI'S,Manhattan,984,SECOND AVENUE,10022,40.75621689872,-73.9675288076,Italian,2025-10-01,"After cooking or removal from hot holding, TCS food not cooled by an approved method whereby the internal temperature is reduced from 140 °F to 70 °F or less within 2 hours, and from 70 °F to 41 °F or less within 4 additional hours.",Critical,12.0,A,1039779,Indirecta (Tráfico)
40367752,GRIFFIS FACULTY CLUB,Manhattan,521,EAST   68 STREET,10065,40.76415611239,-73.95528359282,American,2025-02-07,Anti-siphonage or back-flow prevention device not provided where required; equipment or floor not properly drained; sewage disposal system in disrepair or not functioning properly. Condensation or liquid waste improperly disposed of.,Not Critical,11.0,A,1084781,Indirecta (Tráfico)
40367841,CAFE FIORELLO,Manhattan,1900,BROADWAY,10023,40.7715111492,-73.98215044646,Italian,2025-02-03,"Non-food contact surface or equipment made of unacceptable material, not kept clean, or not properly sealed, raised, spaced or movable to allow accessibility for cleaning on all sides, above and underneath the unit.",Not Critical,6.0,A,1027472,Indirecta (Tráfico)
40368223,OYSTER BAR,Manhattan,nan,GRAND CENTRAL TERMINAL,10017,40.75248636787,-73.97726855596,Seafood,2025-10-07,"Non-food contact surface or equipment made of unacceptable material, not kept clean, or not properly sealed, raised, spaced or movable to allow accessibility for cleaning on all sides, above and underneath the unit.",Not Critical,11.0,A,nan,Indirecta (Tráfico)
40368271,CHERRY TAVERN,Manhattan,441,EAST    6 STREET,10009,40.72599520843,-73.98519690442,American,2025-01-07,"Non-food contact surface or equipment made of unacceptable material, not kept clean, or not properly sealed, raised, spaced or movable to allow accessibility for cleaning on all sides, above and underneath the unit.",Not Critical,13.0,A,1005797,Indirecta (Tráfico)
40368313,RED FLAME DINER,Manhattan,67,WEST   44 STREET,10036,40.75562720334,-73.98193815027,American,2025-01-13,Anti-siphonage or back-flow prevention device not provided where required; equipment or floor not properly drained; sewage disposal system in disrepair or not functioning properly. Condensation or liquid waste improperly disposed of.,Not Critical,12.0,A,1034217,Indirecta (Tráfico)
40368318,MAGGIE'S PLACE,Manhattan,21,EAST   47 STREET,10017,40.75615887998,-73.97738641173,American,2024-07-16,"Design, construction, materials used or maintenance of food contact surface improper. Surface not easily cleanable, sanitized and maintained.",Not Critical,13.0,A,1035419,Indirecta (Tráfico)
40368338,BRADY'S,Manhattan,1583,2 AVENUE,10028,40.77543362087,-73.95353209001,American,2024-08-28,"Food contact surface not properly washed, rinsed and sanitized after each use and following any activity when contamination may have occurred.",Critical,7.0,A,1048656,Indirecta (Tráfico)
40368374,JIMMY'S CORNER,Manhattan,140,WEST   44 STREET,10036,40.75661292367,-73.98433100434,American,2025-02-24,"Filth flies or food/refuse/sewage associated with (FRSA) flies or other nuisance pests in establishment’s food and/or non-food areas. FRSA flies include house flies, blow flies, bottle flies, flesh flies, drain flies, Phorid flies and fruit flies.",Critical,12.0,A,1022619,Indirecta (Tráfico)
40368555,IL CORTILE,Manhattan,123,MULBERRY STREET,10013,40.71789085064,-73.99810609883,Italian,2025-10-15,"After cooking or removal from hot holding, TCS food not cooled by an approved method whereby the internal temperature is reduced from 140 °F to 70 °F or less within 2 hours, and from 70 °F to 41 °F or less within 4 additional hours.",Critical,13.0,A,1002653,Indirecta (Tráfico)
40368581,MARIE'S CRISIS,Manhattan,59,GROVE STREET,10014,40.73313525167,-74.0032871242,American,2025-12-16,"Design, construction, materials used or maintenance of food contact surface improper. Surface not easily cleanable, sanitized and maintained.",Not Critical,5.0,A,1010203,Indirecta (Tráfico)
40368752,RAOUL'S,Manhattan,180,PRINCE STREET,10012,40.72632002803,-74.00203484931,French,2025-01-08,"Food, supplies, or equipment not protected from potential source of contamination during storage, preparation, transportation, display, service or from customer’s refillable, reusable container. Condiments not in single-service containers or dispensed directly by the vendor.",Critical,13.0,A,1007784,Indirecta (Tráfico)
40368763,THE BROOK,Manhattan,111,EAST   54 STREET,10022,40.75942658741,-73.97154121128,American,2024-10-22,"Food contact surface not properly washed, rinsed and sanitized after each use and following any activity when contamination may have occurred.",Critical,5.0,A,1036477,Indirecta (Tráfico)
40368824,DOUBLES CLUB,Manhattan,783,5 AVENUE,10022,40.76453214513,-73.97280972968,American,2024-11-12,Anti-siphonage or back-flow prevention device not provided where required; equipment or floor not properly drained; sewage disposal system in disrepair or not functioning properly. Condensation or liquid waste improperly disposed of.,Not Critical,4.0,A,1040751,Indirecta (Tráfico)
40368897,HATSUHANA,Manhattan,17,EAST   48 STREET,10017,40.75689168853,-73.97717319847,Japanese,2025-05-22,Anti-siphonage or back-flow prevention device not provided where required; equipment or floor not properly drained; sewage disposal system in disrepair or not functioning properly. Condensation or liquid waste improperly disposed of.,Not Critical,13.0,A,1035435,Indirecta (Tráfico)
40369016,VIAND COFFEE SHOP,Manhattan,673,MADISON AVENUE,10065,40.76492405341,-73.97041614682,Greek,2025-11-19,"Garbage receptacle not pest or water resistant, with tight-fitting lids, and covered except while in active use. Garbage receptacle and cover not cleaned after emptying and prior to reuse. Garbage, refuse and other solid and liquid waste not collected, stored, removed and disposed of so as to prevent a nuisance.",Not Critical,13.0,A,1040850,Indirecta (Tráfico)
40369165,REIF'S TAVERN,Manhattan,302,EAST   92 STREET,10128,40.78151113898,-73.94857730019,American,2025-07-07,Food Protection Certificate (FPC) not held by manager or supervisor of food operations.,Critical,30.0,Sin Calificación,1050238,Indirecta (Tráfico)
40369418,CAFFE REGGIO,Manhattan,119,MAC DOUGAL STREET,10012,40.73020663401,-74.00031751281,Italian,2025-08-09,Workplace SFAA policy not prominently posted in workplace.,Not Applicable,0.0,Sin Calificación,1008746,Indirecta (Tráfico)
40369461,CAFE UN DEUX TROIS,Manhattan,123,WEST   44 STREET,10036,40.75648387114,-73.98397730097,French,2025-01-09,"Raw, cooked or prepared food is adulterated, contaminated, cross-contaminated, or not discarded in accordance with HACCP plan.",Critical,27.0,B,1022629,Indirecta (Tráfico)
40369521,KNICKERBOCKER BAR & GRILL,Manhattan,33,UNIVERSITY PLACE,10003,40.73196863947,-73.99445059476,Steakhouse,2025-05-14,Cold TCS food item held above 41 °F; smoked or processed fish held above 38 °F; intact raw eggs held above 45 °F; or reduced oxygen packaged (ROP) TCS foods held above required temperatures except during active necessary preparation.,Critical,13.0,A,1009090,Indirecta (Tráfico)
40369619,MUDVILLE9,Manhattan,126,CHAMBERS STREET,10007,40.71529946809,-74.00879096576,American,2025-12-03,"Non-food contact surface or equipment made of unacceptable material, not kept clean, or not properly sealed, raised, spaced or movable to allow accessibility for cleaning on all sides, above and underneath the unit.",Not Critical,11.0,A,1001482,Indirecta (Tráfico)
40369878,VILLA MOSCONI,Manhattan,69,MACDOUGAL STREET,10012,40.72853780392,-74.0017318445,Italian,2025-04-17,"Establishment is not free of harborage or conditions conducive to rodents, insects or other pests.",Not Critical,25.0,B,1008307,Indirecta (Tráfico)
40369958,SPARKS STEAKHOUSE,Manhattan,210,EAST   46 STREET,10017,40.7530973082,-73.97209615547,Steakhouse,2024-10-09,"Non-food contact surface or equipment made of unacceptable material, not kept clean, or not properly sealed, raised, spaced or movable to allow accessibility for cleaning on all sides, above and underneath the unit.",Not Critical,4.0,A,1037596,Indirecta (Tráfico)
40370168,EAR INN,Manhattan,326,SPRING STREET,10013,40.72599304179,-74.00930109166,American,2025-04-15,"Non-food contact surface or equipment made of unacceptable material, not kept clean, or not properly sealed, raised, spaced or movable to allow accessibility for cleaning on all sides, above and underneath the unit.",Not Critical,13.0,A,1010344,Indirecta (Tráfico)
40370436,ROSSINI'S,Manhattan,108,EAST   38 STREET,10016,40.7493494254,-73.97894066275,Italian,2024-12-26,"Shellfish not from approved source, not or improperly tagged/labeled; tags not retained for 90 days.",Critical,13.0,A,1019118,Indirecta (Tráfico)
40370463,THREE GUY'S RESTAURANT,Manhattan,960,MADISON AVENUE,10021,40.77397437678,-73.96384103552,American,2025-03-26,"Filth flies or food/refuse/sewage associated with (FRSA) flies or other nuisance pests in establishment’s food and/or non-food areas. FRSA flies include house flies, blow flies, bottle flies, flesh flies, drain flies, Phorid flies and fruit flies.",Critical,11.0,A,1041694,Indirecta (Tráfico)
40370507,THE PLAYERS,Manhattan,16,GRAMERCY PARK SOUTH,10003,40.73777589867,-73.98648251565,American,2024-09-05,"Establishment is not free of harborage or conditions conducive to rodents, insects or other pests.",Not Critical,11.0,A,1017938,Indirecta (Tráfico)
40370766,SMITH & WOLLENSKY,Manhattan,201,EAST   49 STREET,10017,40.755051274,-73.97087533929,American,2025-01-08,Anti-siphonage or back-flow prevention device not provided where required; equipment or floor not properly drained; sewage disposal system in disrepair or not functioning properly. Condensation or liquid waste improperly disposed of.,Not Critical,12.0,A,1038223,Indirecta (Tráfico)
40370856,OLIVE TREE CAFE & COMEDY CELLAR,Manhattan,117,MAC DOUGAL STREET,10012,40.73012978037,-74.00038606626,American,2023-04-28,"Non-food contact surface or equipment made of unacceptable material, not kept clean, or not properly sealed, raised, spaced or movable to allow accessibility for cleaning on all sides, above and underneath the unit.",Not Critical,10.0,A,1008747,Indirecta (Tráfico)
40371718,ZAFI'S LUNCHEONETTE,Manhattan,500,GRAND STREET,10002,40.7147385531,-73.98260579443,American,2025-11-24,Cold TCS food item held above 41 °F; smoked or processed fish held above 38 °F; intact raw eggs held above 45 °F; or reduced oxygen packaged (ROP) TCS foods held above required temperatures except during active necessary preparation.,Critical,10.0,A,1004065,Indirecta (Tráfico)
40371805,TY'S,Manhattan,114,CHRISTOPHER STREET,10014,40.73319280806,-74.00547734234,American,2025-12-03,"Food, supplies, or equipment not protected from potential source of contamination during storage, preparation, transportation, display, service or from customer’s refillable, reusable container. Condiments not in single-service containers or dispensed directly by the vendor.",Critical,12.0,A,1010036,Indirecta (Tráfico)
40372262,LA RIPAILLE,Manhattan,605,HUDSON STREET,10014,40.73735385778,-74.00574110539,French,2025-08-21,"Dishwashing and ware washing: Cleaning and sanitizing of tableware, including dishes, utensils, and equipment deficient.",Not Critical,13.0,A,1011371,Indirecta (Tráfico)
40372417,DON FILIPPO RESTAURANT,Manhattan,1133,LEXINGTON AVENUE,10075,40.77464250823,-73.9591072831,Italian,2024-10-03,"Non-food contact surface or equipment made of unacceptable material, not kept clean, or not properly sealed, raised, spaced or movable to allow accessibility for cleaning on all sides, above and underneath the unit.",Not Critical,12.0,A,1043268,Indirecta (Tráfico)
40372466,"MURALS ON 54, RANDOLPH'S",Manhattan,65,WEST   54 STREET,10019,40.76186522252,-73.97733031954,American,2025-10-17,Evidence of mice or live mice in establishment's food or non-food areas.,Critical,41.0,Sin Calificación,1034786,Indirecta (Tráfico)
40372971,RACQUET & TENNIS CLUB,Manhattan,370,PARK AVENUE,10022,40.75879834576,-73.97281207931,American,2024-09-12,"Non-food contact surface or equipment made of unacceptable material, not kept clean, or not properly sealed, raised, spaced or movable to allow accessibility for cleaning on all sides, above and underneath the unit.",Not Critical,10.0,A,1035713,Indirecta (Tráfico)
40373113,ASTRO RESTAURANT,Manhattan,101,WEST   55 STREET,10019,40.76313625147,-73.97839841298,American,2025-11-06,"Pesticide not properly labeled or used by unlicensed individual. Pesticide, other toxic chemical improperly used/stored. Unprotected, unlocked bait station used.",Not Critical,23.0,Sin Calificación,1023394,Indirecta (Tráfico)
40373462,VILLA BERULIA,Manhattan,107,EAST   34 STREET,10016,40.74686574617,-73.98082174297,Italian,2024-12-09,"Non-food contact surface or equipment made of unacceptable material, not kept clean, or not properly sealed, raised, spaced or movable to allow accessibility for cleaning on all sides, above and underneath the unit.",Not Critical,8.0,A,1078763,Indirecta (Tráfico)
40373500,VICTOR'S CAFE,Manhattan,236,WEST   52 STREET,10019,40.76296148404,-73.9838530007,Latin American,2025-07-23,"Establishment is not free of harborage or conditions conducive to rodents, insects or other pests.",Not Critical,13.0,A,1080858,Directa (Rivales)
40373669,BUBO,Manhattan,515,3 AVENUE,10016,40.74604727577,-73.97786984907,Mediterranean,2025-10-16,"Dishwashing and ware washing: Cleaning and sanitizing of tableware, including dishes, utensils, and equipment deficient.",Not Critical,8.0,A,1020177,Indirecta (Tráfico)
40373888,IL MULINO,Manhattan,86,WEST    3 STREET,10012,40.72984432071,-73.99896087285,Italian,2024-10-15,Evidence of mice or live mice in establishment's food or non-food areas.,Critical,11.0,A,1008673,Indirecta (Tráfico)
40373912,THE MALT HOUSE,Manhattan,206,THOMPSON STREET,10012,40.72878758884,-73.99935055587,American,2025-08-09,"Food, supplies, or equipment not protected from potential source of contamination during storage, preparation, transportation, display, service or from customer’s refillable, reusable container. Condiments not in single-service containers or dispensed directly by the vendor.",Critical,9.0,A,1077847,Indirecta (Tráfico)
40373937,SHUN LEE,Manhattan,37,WEST   65 STREET,10023,40.77227389939,-73.98036309909,Chinese,2025-10-15,Evidence of mice or live mice in establishment's food or non-food areas.,Critical,21.0,Z,1028160,Indirecta (Tráfico)
40374192,ELIO'S,Manhattan,1621,SECOND AVENUE,10028,40.77670406411,-73.95260687884,Italian,2025-11-05,"Establishment is not free of harborage or conditions conducive to rodents, insects or other pests.",Not Critical,30.0,Sin Calificación,1048737,Indirecta (Tráfico)
40374415,OMEN AZEN,Manhattan,113,THOMPSON STREET,10012,40.72582322846,-74.00185083313,Japanese,2024-12-05,Cold TCS food item held above 41 °F; smoked or processed fish held above 38 °F; intact raw eggs held above 45 °F; or reduced oxygen packaged (ROP) TCS foods held above required temperatures except during active necessary preparation.,Critical,26.0,Sin Calificación,1007787,Indirecta (Tráfico)
40374834,CASA BELLA,Manhattan,127,MULBERRY STREET,10013,40.71799515067,-73.99803755456,Italian,2024-11-07,"Establishment is not free of harborage or conditions conducive to rodents, insects or other pests.",Not Critical,37.0,Sin Calificación,1002652,Indirecta (Tráfico)
40374974,CHEZ NAPOLEON,Manhattan,365,WEST   50 STREET,10019,40.76320355933,-73.98827145272,French,2024-10-23,"Garbage receptacle not pest or water resistant, with tight-fitting lids, and covered except while in active use. Garbage receptacle and cover not cleaned after emptying and prior to reuse. Garbage, refuse and other solid and liquid waste not collected, stored, removed and disposed of so as to prevent a nuisance.",Not Critical,7.0,A,1025173,Indirecta (Tráfico)
40375616,ARTURO'S,Manhattan,1617,YORK AVENUE,10028,40.77545296805,-73.94747716452,Italian,2024-10-03,"Non-food contact surface or equipment made of unacceptable material, not kept clean, or not properly sealed, raised, spaced or movable to allow accessibility for cleaning on all sides, above and underneath the unit.",Not Critical,5.0,A,1050540,Indirecta (Tráfico)
40375699,GENE'S RESTURANT,Manhattan,73,WEST   11 STREET,10011,40.73493582977,-73.99718548142,Italian,2025-01-08,Cold TCS food item held above 41 °F; smoked or processed fish held above 38 °F; intact raw eggs held above 45 °F; or reduced oxygen packaged (ROP) TCS foods held above required temperatures except during active necessary preparation.,Critical,12.0,A,1009601,Indirecta (Tráfico)
40376142,LUSARDI'S RESTAURANT,Manhattan,1494,SECOND AVENUE,10075,40.77250580327,-73.95564622554,Italian,2025-11-24,Thawing procedure improper.,Not Critical,12.0,A,1045226,Indirecta (Tráfico)
40376352,BLUE NOTE JAZZ,Manhattan,131,WEST    3 STREET,10012,40.73076381906,-74.00079378868,American,2025-11-12,Evidence of mice or live mice in establishment's food or non-food areas.,Critical,11.0,A,1008768,Indirecta (Tráfico)
40376496,THE MONSTER,Manhattan,80,GROVE STREET,10014,40.73340700477,-74.00242836844,American,2025-11-20,Anti-siphonage or back-flow prevention device not provided where required; equipment or floor not properly drained; sewage disposal system in disrepair or not functioning properly. Condensation or liquid waste improperly disposed of.,Not Critical,13.0,A,1010232,Indirecta (Tráfico)
40377325,JACKSON HOLE,Manhattan,521,THIRD AVENUE,10016,40.74622291538,-73.97773986754,Hamburgers,2025-11-19,Failure to post or conspicuously post healthy eating information,Not Critical,0.0,Sin Calificación,1020174,Indirecta (Tráfico)
40377630,JOHN'S COFFEE SHOP,Manhattan,823,SECOND AVENUE,10017,40.75102757214,-73.97133908698,American,2025-10-01,"Non-food contact surface or equipment made of unacceptable material, not kept clean, or not properly sealed, raised, spaced or movable to allow accessibility for cleaning on all sides, above and underneath the unit.",Not Critical,11.0,A,1037564,Indirecta (Tráfico)
40377789,CAFE LUXEMBOURG,Manhattan,200,WEST   70 STREET,10023,40.7774646539,-73.98301540541,French,2025-03-21,Cold TCS food item held above 41 °F; smoked or processed fish held above 38 °F; intact raw eggs held above 45 °F; or reduced oxygen packaged (ROP) TCS foods held above required temperatures except during active necessary preparation.,Critical,12.0,A,1030348,Indirecta (Tráfico)
40378212,CUCHIFRITOS,Manhattan,168,EAST  116 STREET,10029,40.79828609043,-73.94086392362,Spanish,2025-08-15,Sin Violaciones Registradas,Not Applicable,0.0,Sin Calificación,1052256,Indirecta (Tráfico)
40378571,IL CANTINORI,Manhattan,32,EAST   10 STREET,10003,40.73240223736,-73.99307221868,Italian,2025-07-28,"Tobacco or electronic cigarette use, eating, or drinking from open container in food preparation, food storage or dishwashing area.",Critical,12.0,A,1009097,Indirecta (Tráfico)
40378579,ANDREW'S NYC DINER,Manhattan,463,7 AVENUE,10018,40.75174161377,-73.99005645841,American,2025-07-07,"Unclean or cracked whole eggs or unpasteurized liquid, frozen or powdered eggs kept or used.",Critical,12.0,A,1015222,Indirecta (Tráfico)
40378874,TERRA BLUES,Manhattan,149,BLEEKER STREET,10012,40.72826882815,-73.99935777693,American,2024-09-14,"Food contact surface not properly washed, rinsed and sanitized after each use and following any activity when contamination may have occurred.",Critical,5.0,A,1008649,Indirecta (Tráfico)
40379149,MONTE'S TRATTORIA,Manhattan,97,MACDOUGAL STREET,10012,40.72944358561,-74.00096335165,Italian,2025-01-29,Cold TCS food item held above 41 °F; smoked or processed fish held above 38 °F; intact raw eggs held above 45 °F; or reduced oxygen packaged (ROP) TCS foods held above required temperatures except during active necessary preparation.,Critical,13.0,A,1008734,Indirecta (Tráfico)
40379580,COOPER TOWN DINER,Manhattan,339,1 AVENUE,10003,40.7347529574,-73.97994841433,American,2025-01-09,"Non-food contact surface or equipment made of unacceptable material, not kept clean, or not properly sealed, raised, spaced or movable to allow accessibility for cleaning on all sides, above and underneath the unit.",Not Critical,12.0,A,1020526,Indirecta (Tráfico)
40379662,MEZZALUNA,Manhattan,1295,THIRD AVENUE,10021,40.77128305492,-73.95946677703,Italian,2025-02-04,"Non-food contact surface or equipment made of unacceptable material, not kept clean, or not properly sealed, raised, spaced or movable to allow accessibility for cleaning on all sides, above and underneath the unit.",Not Critical,29.0,Sin Calificación,1044020,Indirecta (Tráfico)
40379746,RESTUARANT NIPPON,Manhattan,155,EAST   52 STREET,10022,40.75751058012,-73.970881479,Japanese,2025-01-27,"Food contact surface not properly washed, rinsed and sanitized after each use and following any activity when contamination may have occurred.",Critical,11.0,A,1036468,Indirecta (Tráfico)
40379890,O'HARA'S,Manhattan,120,CEDAR STREET,10006,40.70963664185,-74.01271100592,American,2025-07-01,"Non-food contact surface or equipment made of unacceptable material, not kept clean, or not properly sealed, raised, spaced or movable to allow accessibility for cleaning on all sides, above and underneath the unit.",Not Critical,19.0,Sin Calificación,1001038,Indirecta (Tráfico)
40379920,E.A.T. CAFE,Manhattan,1064,MADISON AVENUE,10028,40.77737157688,-73.96136587757,American,2025-07-15,"Filth flies or food/refuse/sewage associated with (FRSA) flies or other nuisance pests in establishment’s food and/or non-food areas. FRSA flies include house flies, blow flies, bottle flies, flesh flies, drain flies, Phorid flies and fruit flies.",Critical,10.0,A,1046617,Indirecta (Tráfico)
40380182,CLUB 101,Manhattan,101,PARK AVENUE,10178,40.75098521845,-73.97848538066,American,2025-10-14,"Food contact surface not properly washed, rinsed and sanitized after each use and following any activity when contamination may have occurred.",Critical,11.0,A,1036144,Indirecta (Tráfico)
40380432,THE BITTER END,Manhattan,147,BLEECKER STREET,10012,40.72821942176,-73.99925675363,American,2024-12-06,"Pesticide not properly labeled or used by unlicensed individual. Pesticide, other toxic chemical improperly used/stored. Unprotected, unlocked bait station used.",Not Critical,8.0,A,1008648,Indirecta (Tráfico)
40380457,ARRIBA ARRIBA,Manhattan,762,9 AVENUE,10019,40.76419717623,-73.98841567502,Mexican,2025-09-02,"Pesticide not properly labeled or used by unlicensed individual. Pesticide, other toxic chemical improperly used/stored. Unprotected, unlocked bait station used.",Not Critical,9.0,A,1025191,Directa (Rivales)
40380660,BURRITO LOCO,Manhattan,166,WEST    4 STREET,10014,40.73201268135,-74.00140358912,Mexican,2025-05-19,"Single service article not provided. Single service article reused or not protected from contamination when transported, stored, dispensed. Drinking straws not completely enclosed in wrapper or dispensed from a sanitary device.",Not Critical,13.0,A,1010146,Directa (Rivales)
40380826,FIT CAFETERIA (David Dubinsky Student Center),Manhattan,227,WEST   27 STREET,10001,40.74711975771,-73.99499068076,American,2025-09-16,"Food, supplies, or equipment not protected from potential source of contamination during storage, preparation, transportation, display, service or from customer’s refillable, reusable container. Condiments not in single-service containers or dispensed directly by the vendor.",Critical,32.0,Sin Calificación,1014251,Indirecta (Tráfico)
40381720,MISS LILY'S 7A CAFE,Manhattan,109,AVENUE A,10009,40.72596205537,-73.98360944925,Caribbean,2025-12-16,Wash hands sign not posted near or above hand washing sink.,Not Critical,12.0,A,1005791,Indirecta (Tráfico)
40383464,LE BERNARDIN,Manhattan,155,WEST   51 STREET,10019,40.7613280577,-73.98187523191,French,2025-01-29,"Non-food contact surface or equipment made of unacceptable material, not kept clean, or not properly sealed, raised, spaced or movable to allow accessibility for cleaning on all sides, above and underneath the unit.",Not Critical,2.0,A,1023157,Indirecta (Tráfico)
40383511,BRANDY'S PIANO BAR,Manhattan,235,EAST   84 STREET,10028,40.77713558201,-73.95406166378,American,2025-11-24,"Food contact surface not properly washed, rinsed and sanitized after each use and following any activity when contamination may have occurred.",Critical,8.0,A,1048734,Indirecta (Tráfico)
40384188,LA MELA,Manhattan,167,MULBERRY STREET,10013,40.71991097814,-73.99707789214,Italian,2025-11-25,"Non-food contact surface or equipment made of unacceptable material, not kept clean, or not properly sealed, raised, spaced or movable to allow accessibility for cleaning on all sides, above and underneath the unit.",Not Critical,12.0,A,1006967,Indirecta (Tráfico)
40384340,FRIEND OF A FARMER,Manhattan,77,IRVING PLACE,10003,40.73690033847,-73.98664868331,American,2025-01-16,"Design, construction, materials used or maintenance of food contact surface improper. Surface not easily cleanable, sanitized and maintained.",Not Critical,9.0,A,1017899,Indirecta (Tráfico)
40384671,CHEZ JOSEPHINE,Manhattan,414,WEST   42 STREET,10036,40.75870530575,-73.99332575755,French,2025-12-03,"Swollen, leaking, rusted or otherwise damaged canned food to be returned to distributor not segregated from intact product and clearly labeled DO NOT USE",Critical,19.0,Sin Calificación,1026332,Indirecta (Tráfico)
40385157,PANGEA,Manhattan,178,2 AVENUE,10003,40.73057634971,-73.98621698084,Mediterranean,2023-12-20,"Establishment is not free of harborage or conditions conducive to rodents, insects or other pests.",Not Critical,10.0,A,1006471,Indirecta (Tráfico)
40385161,AUTOMATIC SLIM'S,Manhattan,733,WASHINGTON STREET,10014,40.7362997124,-74.00829217515,American,2025-01-09,Food Protection Certificate (FPC) not held by manager or supervisor of food operations.,Critical,26.0,B,1011923,Indirecta (Tráfico)
40385587,ISLAND,Manhattan,1305,MADISON AVENUE,10128,40.78495332555,-73.95580762231,Seafood,2025-04-03,"Food contact surface not properly washed, rinsed and sanitized after each use and following any activity when contamination may have occurred.",Critical,12.0,A,1047084,Indirecta (Tráfico)
40385693,"SALUMERIA BEILLESE, BIRICCHINO REST",Manhattan,378,8 AVENUE,10001,40.74894780147,-73.99580620368,Italian,2025-01-16,"Sanitized equipment or utensil, including in-use food dispensing utensil, improperly used or stored.",Critical,13.0,A,1014272,Indirecta (Tráfico)
40385852,SAM'S PLACE,Manhattan,132,EAST   39 STREET,10016,40.749428691,-73.97720102956,Italian,2023-12-20,Evidence of mice or live mice in establishment's food or non-food areas.,Critical,17.0,B,1019157,Indirecta (Tráfico)
40385873,RAY'S PIZZA,Manhattan,829,7 AVENUE,10019,40.76324661135,-73.98167255357,Pizza,2024-02-06,"Dishwashing and ware washing: Cleaning and sanitizing of tableware, including dishes, utensils, and equipment deficient.",Not Critical,10.0,A,1023165,Indirecta (Tráfico)
40386001,PRIMOLA,Manhattan,1226,SECOND AVENUE,10065,40.76393068616,-73.96190436458,Italian,2023-05-09,Anti-siphonage or back-flow prevention device not provided where required; equipment or floor not properly drained; sewage disposal system in disrepair or not functioning properly. Condensation or liquid waste improperly disposed of.,Not Critical,4.0,A,1044690,Indirecta (Tráfico)
40386556,WESTSIDE RESTAURANT,Manhattan,2020,BROADWAY,10023,40.77641053287,-73.98212385383,American,2024-12-26,"Wiping cloths not stored clean and dry, or in a sanitizing solution, between uses.",Critical,10.0,A,1029632,Indirecta (Tráfico)
40386569,SAL & CARMINE PIZZA,Manhattan,2671,BROADWAY,10025,40.79822581963,-73.96918411306,Pizza,2025-06-04,"Food, supplies, or equipment not protected from potential source of contamination during storage, preparation, transportation, display, service or from customer’s refillable, reusable container. Condiments not in single-service containers or dispensed directly by the vendor.",Critical,7.0,A,1056518,Indirecta (Tráfico)
40386570,CUBBYHOLE,Manhattan,281,WEST   12 STREET,10014,40.73756529329,-74.00355076411,American,2024-01-04,"Food, supplies, or equipment not protected from potential source of contamination during storage, preparation, transportation, display, service or from customer’s refillable, reusable container. Condiments not in single-service containers or dispensed directly by the vendor.",Critical,7.0,A,1011062,Indirecta (Tráfico)
40386619,PERIYALI,Manhattan,35,WEST   20 STREET,10011,40.74020554589,-73.9922053297,Greek,2024-04-29,"Wiping cloths not stored clean and dry, or in a sanitizing solution, between uses.",Critical,7.0,A,1015490,Indirecta (Tráfico)
40386646,CLUB METROPOLITAN,Manhattan,146,WEST   57 STREET,10019,40.76514556193,-73.97919917883,American,2025-09-08,"Non-food contact surface or equipment made of unacceptable material, not kept clean, or not properly sealed, raised, spaced or movable to allow accessibility for cleaning on all sides, above and underneath the unit.",Not Critical,2.0,A,1085969,Indirecta (Tráfico)
40386747,ARNO RISTORANTE,Manhattan,141,WEST   38 STREET,10018,40.75307259716,-73.98772823247,Italian,2025-06-18,"Pesticide not properly labeled or used by unlicensed individual. Pesticide, other toxic chemical improperly used/stored. Unprotected, unlocked bait station used.",Not Critical,13.0,N,1015264,Indirecta (Tráfico)
40386976,LUPE'S EAST L.A. KITCHEN,Manhattan,110,AVENUE OF THE AMERICAS,10013,40.72367948364,-74.00471893092,Mexican,2025-05-29,Cold TCS food item held above 41 °F; smoked or processed fish held above 38 °F; intact raw eggs held above 45 °F; or reduced oxygen packaged (ROP) TCS foods held above required temperatures except during active necessary preparation.,Critical,12.0,A,1007099,Directa (Rivales)
40386999,DUE,Manhattan,1396,THIRD AVENUE,10075,40.77456217763,-73.95709988738,Italian,2025-06-30,"Food contact surface not properly washed, rinsed and sanitized after each use and following any activity when contamination may have occurred.",Critical,7.0,A,1085208,Indirecta (Tráfico)
40387162,DA UMBERTO,Manhattan,107,WEST   17 STREET,10011,40.73948386638,-73.99594753724,Italian,2024-10-01,"No hand washing facility in or adjacent to toilet room or within 25 feet of a food preparation, food service or ware washing area. Hand washing facility not accessible, obstructed or used for non-hand washing purposes. No hot and cold running water or water at inadequate pressure. No soap or acceptable hand-drying device.",Critical,26.0,Sin Calificación,1014656,Indirecta (Tráfico)
40387277,PECULIAR PUB,Manhattan,145,BLEECKER STREET,10012,40.72817001527,-73.99915573048,American,2025-11-07,"Wiping cloths not stored clean and dry, or in a sanitizing solution, between uses.",Critical,13.0,A,1008647,Indirecta (Tráfico)
40387754,TRATTORIA DELL'ARTE,Manhattan,900,7 AVENUE,10106,40.76541471128,-73.98011964825,Italian,2024-04-24,"Non-food contact surface or equipment made of unacceptable material, not kept clean, or not properly sealed, raised, spaced or movable to allow accessibility for cleaning on all sides, above and underneath the unit.",Not Critical,13.0,A,1024896,Indirecta (Tráfico)
40387861,WESTWAY DINER,Manhattan,614,9 AVENUE,10036,40.75947923235,-73.99184931572,American,2025-07-18,"Non-food contact surface or equipment made of unacceptable material, not kept clean, or not properly sealed, raised, spaced or movable to allow accessibility for cleaning on all sides, above and underneath the unit.",Not Critical,11.0,A,1024979,Indirecta (Tráfico)
40388218,WALKER'S,Manhattan,16,NORTH MOORE STREET,10013,40.71979002741,-74.00707437417,American,2025-05-17,Sin Violaciones Registradas,Not Applicable,0.0,Sin Calificación,1002149,Indirecta (Tráfico)
40388321,COWGIRL,Manhattan,519,HUDSON STREET,10014,40.73384053107,-74.00628565446,Tex-Mex,2024-11-19,"Food contact surface not properly washed, rinsed and sanitized after each use and following any activity when contamination may have occurred.",Critical,7.0,A,1078241,Directa (Rivales)
40388419,FAMOUS FAMIGLIA PIZZERIA,Manhattan,2859,BROADWAY,10025,40.80477671052,-73.96625883262,Pizza,2025-12-04,Anti-siphonage or back-flow prevention device not provided where required; equipment or floor not properly drained; sewage disposal system in disrepair or not functioning properly. Condensation or liquid waste improperly disposed of.,Not Critical,12.0,A,1075440,Indirecta (Tráfico)
40388578,DIVE BAR,Manhattan,732,AMSTERDAM AVENUE,10025,40.793831831,-73.97053687899,American,2025-09-17,"Non-food contact surface or equipment made of unacceptable material, not kept clean, or not properly sealed, raised, spaced or movable to allow accessibility for cleaning on all sides, above and underneath the unit.",Not Critical,8.0,A,1033703,Indirecta (Tráfico)
40388640,THE CORNELL CENTER OF NEW YORK,Manhattan,6,EAST   44 STREET,10017,40.75459751558,-73.97953816198,American,2025-09-09,"Food contact surface not properly washed, rinsed and sanitized after each use and following any activity when contamination may have occurred.",Critical,11.0,A,1035364,Indirecta (Tráfico)
40388672,NECTAR,Manhattan,1090,MADISON AVENUE,10028,40.77812894166,-73.96081299828,American,2025-03-24,Cold TCS food item held above 41 °F; smoked or processed fish held above 38 °F; intact raw eggs held above 45 °F; or reduced oxygen packaged (ROP) TCS foods held above required temperatures except during active necessary preparation.,Critical,11.0,A,1046733,Indirecta (Tráfico)
40388784,2A / BERLIN / OLD FLINGS,Manhattan,25,AVENUE A,10009,40.72290193713,-73.9858361576,American,2025-11-25,Food Protection Certificate (FPC) not held by manager or supervisor of food operations.,Critical,21.0,Z,1005746,Indirecta (Tráfico)
40388787,SETTE MEZZO,Manhattan,969,LEXINGTON AVENUE,10021,40.76932723321,-73.96298794436,Italian,2025-05-05,"Raw, cooked or prepared food is adulterated, contaminated, cross-contaminated, or not discarded in accordance with HACCP plan.",Critical,33.0,Sin Calificación,1042761,Indirecta (Tráfico)
40388818,YAMA,Manhattan,122,EAST   17 STREET,10003,40.73600017561,-73.98772056365,Japanese,2025-09-23,"Food, supplies, or equipment not protected from potential source of contamination during storage, preparation, transportation, display, service or from customer’s refillable, reusable container. Condiments not in single-service containers or dispensed directly by the vendor.",Critical,25.0,Z,1017830,Indirecta (Tráfico)
40388901,EL CASTILLO DE JAGUA,Manhattan,113,RIVINGTON STREET,10002,40.71989664373,-73.98781012303,Latin American,2025-12-03,Hot TCS food item not held at or above 140 °F.,Critical,11.0,A,1005330,Directa (Rivales)
40388935,SAKE BAR DECIBEL,Manhattan,240,EAST    9 STREET,10003,40.72955551232,-73.98814389937,Japanese,2024-05-22,"Non-food contact surface or equipment made of unacceptable material, not kept clean, or not properly sealed, raised, spaced or movable to allow accessibility for cleaning on all sides, above and underneath the unit.",Not Critical,2.0,A,1006745,Indirecta (Tráfico)
40389114,SACCO PIZZA,Manhattan,819,9 AVENUE,10019,40.76606072378,-73.98707963113,Pizza,2025-11-17,"Non-food contact surface or equipment made of unacceptable material, not kept clean, or not properly sealed, raised, spaced or movable to allow accessibility for cleaning on all sides, above and underneath the unit.",Not Critical,10.0,A,1026794,Indirecta (Tráfico)
40389243,DA TOMMASO RISTORANTE,Manhattan,903,EIGHTH AVENUE,10019,40.76455078286,-73.98446269848,Italian,2025-05-07,Personal cleanliness is inadequate. Outer garment soiled with possible contaminant. Effective hair restraint not worn where required. Jewelry worn on hands or arms. Fingernail polish worn or fingernails not kept clean and trimmed.,Critical,10.0,A,1025400,Indirecta (Tráfico)
40389356,TOM'S RESTAURANT,Manhattan,2880,BROADWAY,10025,40.8054901852,-73.9657202522,American,2024-12-13,"Pesticide not properly labeled or used by unlicensed individual. Pesticide, other toxic chemical improperly used/stored. Unprotected, unlocked bait station used.",Not Critical,8.0,A,1056989,Indirecta (Tráfico)
40389455,TOWNHOUSE OF NY,Manhattan,236,EAST   58 STREET,10022,40.76050379202,-73.96607559101,American,2024-05-16,"Raw, cooked or prepared food is adulterated, contaminated, cross-contaminated, or not discarded in accordance with HACCP plan.",Critical,9.0,A,1038608,Indirecta (Tráfico)
40389807,CHAMP GOURMET,Manhattan,30,BROAD STREET,10004,40.70617289471,-74.01124959123,American,2025-07-17,"Food contact surface, refillable, reusable containers, or equipment improperly constructed, placed or maintained. Unacceptable material used. Culinary sink or other acceptable method not provided for washing food.",Critical,13.0,A,1000819,Indirecta (Tráfico)
40390409,THE FAMOUS JIMBO'S HAMBURGER PALACE,Manhattan,1345,AMSTERDAM AVENUE,10027,40.81370464585,-73.95601244128,Hamburgers,2024-10-15,Food Protection Certificate (FPC) not held by manager or supervisor of food operations.,Critical,13.0,A,1084098,Indirecta (Tráfico)
40390696,HAN BAT RESTAURANT,Manhattan,53,WEST   35 STREET,10001,40.74986925136,-73.98589897606,Korean,2025-10-14,Cold TCS food item held above 41 °F; smoked or processed fish held above 38 °F; intact raw eggs held above 45 °F; or reduced oxygen packaged (ROP) TCS foods held above required temperatures except during active necessary preparation.,Critical,13.0,A,1085001,Indirecta (Tráfico)
40391060,LUKE'S BAR & GRILL,Manhattan,1394,THIRD AVENUE,10075,40.77450180921,-73.95714325253,American,2024-05-16,"Establishment is not free of harborage or conditions conducive to rodents, insects or other pests.",Not Critical,10.0,A,1047478,Indirecta (Tráfico)
40391092,BELAIRE CAFE,Manhattan,525,EAST   71 STREET,10021,40.76595606195,-73.95374089055,American,2025-01-28,Thawing procedure improper.,Not Critical,4.0,A,1087893,Indirecta (Tráfico)
40391121,LAZZARA'S PIZZA CAFE & RESTAURANT,Manhattan,221,WEST   38 STREET,10018,40.75386601884,-73.98961218553,Pizza,2025-04-08,Current letter grade or Grade Pending card not posted,Not Critical,0.0,Sin Calificación,1014479,Indirecta (Tráfico)
40391272,LINA RESTAURANT,Manhattan,500,WEST  207 STREET,10034,40.86445939269,-73.91897498727,Latin American,2025-05-15,Hot TCS food item not held at or above 140 °F.,Critical,10.0,A,1081909,Directa (Rivales)
40391284,BAR ASSOCIATION OF THE CITY OF NY KITCHEN,Manhattan,42,WEST   44 STREET,10036,40.75536910476,-73.98136792452,American,2025-10-01,"Non-food contact surface or equipment made of unacceptable material, not kept clean, or not properly sealed, raised, spaced or movable to allow accessibility for cleaning on all sides, above and underneath the unit.",Not Critical,9.0,A,1034204,Indirecta (Tráfico)
40391695,ORSO,Manhattan,322,WEST   46 STREET,10036,40.76014595185,-73.98880262324,Italian,2024-10-22,"Non-food contact surface or equipment made of unacceptable material, not kept clean, or not properly sealed, raised, spaced or movable to allow accessibility for cleaning on all sides, above and underneath the unit.",Not Critical,13.0,A,1025032,Indirecta (Tráfico)
40391913,THE NIPPON CLUB,Manhattan,145,WEST   57 STREET,10019,40.76495882841,-73.97870827872,Japanese,2024-07-08,Cold TCS food item held above 41 °F; smoked or processed fish held above 38 °F; intact raw eggs held above 45 °F; or reduced oxygen packaged (ROP) TCS foods held above required temperatures except during active necessary preparation.,Critical,13.0,A,1023723,Indirecta (Tráfico)
40391979,SUTTON CAFE,Manhattan,1026,FIRST AVENUE,10022,40.75777464564,-73.96329398516,American,2025-08-27,"Establishment is not free of harborage or conditions conducive to rodents, insects or other pests.",Not Critical,25.0,B,1040466,Indirecta (Tráfico)
40392063,WALTER'S BAR,Manhattan,389,8 AVENUE,10001,40.74928814359,-73.99558602478,American,2024-06-03,"Non-food contact surface or equipment made of unacceptable material, not kept clean, or not properly sealed, raised, spaced or movable to allow accessibility for cleaning on all sides, above and underneath the unit.",Not Critical,9.0,A,1013489,Indirecta (Tráfico)
40392496,TARTINE,Manhattan,253,WEST   11 STREET,10014,40.7362148771,-74.00329449357,French,2024-08-13,Evidence of mice or live mice in establishment's food or non-food areas.,Critical,25.0,B,1010978,Indirecta (Tráfico)
40392668,LUCY'S,Manhattan,135,AVENUE A,10009,40.72693085513,-73.98290566524,American,2023-11-28,Food Protection Certificate (FPC) not held by manager or supervisor of food operations.,Critical,17.0,Sin Calificación,1082477,Indirecta (Tráfico)
40392834,CARINITO NYC,Manhattan,86,UNIVERSITY PLACE,10003,40.73356876434,-73.99310457148,Mexican,2025-06-26,Hot TCS food item not held at or above 140 °F.,Critical,21.0,Sin Calificación,1009284,Directa (Rivales)
40393044,SCALINATELLA,Manhattan,201,EAST   61 STREET,10065,40.76266369316,-73.9653272445,Italian,2024-07-10,"Garbage receptacle not pest or water resistant, with tight-fitting lids, and covered except while in active use. Garbage receptacle and cover not cleaned after emptying and prior to reuse. Garbage, refuse and other solid and liquid waste not collected, stored, removed and disposed of so as to prevent a nuisance.",Not Critical,2.0,A,1043779,Indirecta (Tráfico)
40393154,AMSTERDAM BILLIARDS,Manhattan,85,4 AVENUE,10003,40.73169662981,-73.99027595197,American,2024-05-23,"Non-food contact surface or equipment made of unacceptable material, not kept clean, or not properly sealed, raised, spaced or movable to allow accessibility for cleaning on all sides, above and underneath the unit.",Not Critical,2.0,A,1008968,Indirecta (Tráfico)
40393378,E.J'S LUNCHEONETTE,Manhattan,1271,THIRD AVENUE,10021,40.77056685867,-73.95999431777,American,2025-09-10,Cold TCS food item held above 41 °F; smoked or processed fish held above 38 °F; intact raw eggs held above 45 °F; or reduced oxygen packaged (ROP) TCS foods held above required temperatures except during active necessary preparation.,Critical,22.0,Z,1043984,Indirecta (Tráfico)
40393519,DOWN THE HATCH,Manhattan,175,WEST    4 STREET,10014,40.7323941993,-74.00172472868,American,2024-12-12,"Food, supplies, or equipment not protected from potential source of contamination during storage, preparation, transportation, display, service or from customer’s refillable, reusable container. Condiments not in single-service containers or dispensed directly by the vendor.",Critical,12.0,A,1010228,Indirecta (Tráfico)
40393558,FITZGERALD'S PUB,Manhattan,336,THIRD AVENUE,10010,40.73996565528,-73.98232853578,American,2024-10-15,"Establishment is not free of harborage or conditions conducive to rodents, insects or other pests.",Not Critical,13.0,A,1018080,Indirecta (Tráfico)
40393570,PASTA LOVERS TRATTORIA,Manhattan,142,WEST   49 STREET,10019,40.75979103942,-73.98217164789,Italian,2025-08-13,Cold TCS food item held above 41 °F; smoked or processed fish held above 38 °F; intact raw eggs held above 45 °F; or reduced oxygen packaged (ROP) TCS foods held above required temperatures except during active necessary preparation.,Critical,13.0,A,1022694,Indirecta (Tráfico)
40393712,SHABU TATSU,Manhattan,216,EAST   10 STREET,10003,40.72928624546,-73.98569047339,Japanese,2024-12-10,Cold TCS food item held above 41 °F; smoked or processed fish held above 38 °F; intact raw eggs held above 45 °F; or reduced oxygen packaged (ROP) TCS foods held above required temperatures except during active necessary preparation.,Critical,13.0,A,1006410,Indirecta (Tráfico)
40393725,TRIBECA GRILL,Manhattan,375,GREENWICH STREET,10013,40.7196964662,-74.01024177459,American,2024-04-23,Hot TCS food item not held at or above 140 °F.,Critical,13.0,A,1002114,Indirecta (Tráfico)
40393761,SAN PIETRO,Manhattan,18,EAST   54 STREET,10022,40.76070361992,-73.97460895841,Italian,2024-07-31,Thawing procedure improper.,Not Critical,27.0,Sin Calificación,1035727,Indirecta (Tráfico)
40394007,NIAGARA / LOVERS OF TODAY / 96 TEARS,Manhattan,112,AVENUE A,10009,40.72591265113,-73.98362028505,American,2024-05-16,"Non-food contact surface or equipment made of unacceptable material, not kept clean, or not properly sealed, raised, spaced or movable to allow accessibility for cleaning on all sides, above and underneath the unit.",Not Critical,2.0,A,1005082,Indirecta (Tráfico)
40394176,MEZE MAZI,Manhattan,449,THIRD AVENUE,10016,40.74372003222,-73.97956677746,Greek,2023-04-19,Cold TCS food item held above 41 °F; smoked or processed fish held above 38 °F; intact raw eggs held above 45 °F; or reduced oxygen packaged (ROP) TCS foods held above required temperatures except during active necessary preparation.,Critical,26.0,B,1082148,Indirecta (Tráfico)
40394207,PASCALOU,Manhattan,1308,MADISON AVENUE,10128,40.78509053253,-73.95572808699,French,2025-02-27,"Non-food contact surface or equipment made of unacceptable material, not kept clean, or not properly sealed, raised, spaced or movable to allow accessibility for cleaning on all sides, above and underneath the unit.",Not Critical,11.0,A,1078500,Indirecta (Tráfico)
40394392,PICCOLO ANGOLO,Manhattan,621,HUDSON STREET,10014,40.73804828907,-74.00561847556,Italian,2023-05-23,Thawing procedure improper.,Not Critical,12.0,A,1011419,Indirecta (Tráfico)
40394401,BAR SIX,Manhattan,502,6 AVENUE,10011,40.73648113839,-73.99745965742,French,2025-05-15,"Non-food contact surface or equipment made of unacceptable material, not kept clean, or not properly sealed, raised, spaced or movable to allow accessibility for cleaning on all sides, above and underneath the unit.",Not Critical,11.0,A,1009611,Indirecta (Tráfico)
40395055,BECCO,Manhattan,355,WEST   46 STREET,10036,40.76043421171,-73.98943788951,Italian,2023-01-31,"Design, construction, materials used or maintenance of food contact surface improper.  Surface not easily cleanable, sanitized and maintained.",Not Critical,13.0,A,1025046,Indirecta (Tráfico)
40395079,RUDY'S BAR & GRILL,Manhattan,627,9 AVENUE,10036,40.75992935082,-73.99154604425,American,2025-11-17,"Non-food contact surface or equipment made of unacceptable material, not kept clean, or not properly sealed, raised, spaced or movable to allow accessibility for cleaning on all sides, above and underneath the unit.",Not Critical,13.0,A,1026435,Indirecta (Tráfico)
40395122,GINO'S PIZZERIA,Manhattan,345,EAST   83 STREET,10028,40.77546320888,-73.95206257047,Pizza,2025-04-08,"Non-food contact surface or equipment made of unacceptable material, not kept clean, or not properly sealed, raised, spaced or movable to allow accessibility for cleaning on all sides, above and underneath the unit.",Not Critical,8.0,A,1049930,Indirecta (Tráfico)
40395343,FELIX,Manhattan,340,WEST BROADWAY,10013,40.72256514815,-74.00362211553,French,2025-04-24,"Design, construction, materials used or maintenance of food contact surface improper. Surface not easily cleanable, sanitized and maintained.",Not Critical,7.0,A,1007113,Indirecta (Tráfico)
40395872,CARIDAD RESTAURANT,Manhattan,3533,BROADWAY,10031,40.82619926989,-73.95062390756,Latin American,2024-10-23,Anti-siphonage or back-flow prevention device not provided where required; equipment or floor not properly drained; sewage disposal system in disrepair or not functioning properly. Condensation or liquid waste improperly disposed of.,Not Critical,8.0,A,1062370,Directa (Rivales)
40395892,THE STUMBLE INN,Manhattan,1454,2 AVENUE,10021,40.77128198358,-73.95653879639,American,2025-09-10,"Establishment is not free of harborage or conditions conducive to rodents, insects or other pests.",Not Critical,20.0,Sin Calificación,1045156,Indirecta (Tráfico)
40396020,LA CONTENTA OESTE,Manhattan,78,WEST   11 STREET,10011,40.73497425984,-73.9973262058,Mexican,2025-09-10,"Time/Temperature Control for Safety (TCS) food not cooked to required minimum internal temperature.   • Poultry, poultry parts, ground and comminuted poultry, all stuffing containing poultry, meats, fish or ratites to or above 165 °F for 15 seconds with no interruption of the cooking process   • Ground meat, and food containing ground and comminuted meat, to or above 158 °F for 15 seconds with no interruption of the cooking process, except per individual customer request  • Pork, any food containing pork to or above 150 °F for 15 seconds  • Mechanically tenderized or injected meats to or above 155 °F.  • Whole meat roasts and beef steak to or above required temperature and time except per individual customer request  • Raw animal foods cooked in microwave to or above165 °F, covered, rotated or stirred   • All other foods to or above 140 °F for 15 seconds; shell eggs to or above 145 °F for 15 seconds except per individual customer request.",Critical,12.0,A,1009510,Directa (Rivales)
40396159,CARMINE'S,Manhattan,200,WEST   44 STREET,10036,40.75739816357,-73.98618975195,Italian,2025-03-17,"Non-food contact surface or equipment made of unacceptable material, not kept clean, or not properly sealed, raised, spaced or movable to allow accessibility for cleaning on all sides, above and underneath the unit.",Not Critical,12.0,A,1024706,Indirecta (Tráfico)
40396183,HEAVEN CAN WAIT,Manhattan,169,AVENUE A,10009,40.72821251716,-73.98196725734,American,2024-05-16,"Non-food contact surface or equipment made of unacceptable material, not kept clean, or not properly sealed, raised, spaced or movable to allow accessibility for cleaning on all sides, above and underneath the unit.",Not Critical,2.0,A,1005946,Indirecta (Tráfico)
40396231,DELMONICO GOURMET,Manhattan,375,LEXINGTON AVENUE,10017,40.75086404999,-73.97645342719,American,2025-11-12,"Food adulterated or misbranded. Adulterated or misbranded food possessed, being manufactured, produced, packed, sold, offered for sale, delivered or given away",Not Critical,13.0,A,1036153,Indirecta (Tráfico)
40396264,DA NICO RISTORANTE,Manhattan,164,MULBERRY STREET,10013,40.71982314595,-73.99709232615,Italian,2025-09-30,"Non-food contact surface or equipment made of unacceptable material, not kept clean, or not properly sealed, raised, spaced or movable to allow accessibility for cleaning on all sides, above and underneath the unit.",Not Critical,12.0,A,1006974,Indirecta (Tráfico)
40396488,AUCTION HOUSE,Manhattan,300,EAST   89 STREET,10128,40.77964807397,-73.94998695263,American,2024-10-24,"Food contact surface not properly washed, rinsed and sanitized after each use and following any activity when contamination may have occurred.",Critical,5.0,A,1050100,Indirecta (Tráfico)
40396532,METRO DINER,Manhattan,2641,BROADWAY,10025,40.79730650719,-73.96985632598,American,2024-10-01,Anti-siphonage or back-flow prevention device not provided where required; equipment or floor not properly drained; sewage disposal system in disrepair or not functioning properly. Condensation or liquid waste improperly disposed of.,Not Critical,3.0,A,1056479,Indirecta (Tráfico)
40396622,MEDITERRANEO,Manhattan,1260,2 AVENUE,10065,40.76507222529,-73.96106979992,Italian,2025-11-19,"Garbage receptacle not pest or water resistant, with tight-fitting lids, and covered except while in active use. Garbage receptacle and cover not cleaned after emptying and prior to reuse. Garbage, refuse and other solid and liquid waste not collected, stored, removed and disposed of so as to prevent a nuisance.",Not Critical,22.0,Sin Calificación,1044738,Indirecta (Tráfico)
40396906,FLANNERY'S BAR,Manhattan,205,WEST   14 STREET,10011,40.73876755456,-74.00018403684,American,2024-08-22,"Food, supplies, or equipment not protected from potential source of contamination during storage, preparation, transportation, display, service or from customer’s refillable, reusable container. Condiments not in single-service containers or dispensed directly by the vendor.",Critical,10.0,A,1013730,Indirecta (Tráfico)
40397116,TOLEDO,Manhattan,6,EAST   36 STREET,10016,40.74950382563,-73.98313805447,Spanish,2024-05-08,Personal cleanliness is inadequate. Outer garment soiled with possible contaminant. Effective hair restraint not worn where required. Jewelry worn on hands or arms. Fingernail polish worn or fingernails not kept clean and trimmed.,Critical,10.0,A,1017132,Indirecta (Tráfico)
40397492,MANHATTAN DINER,Manhattan,2532,BROADWAY,10025,40.79376367968,-73.97241853109,American,2025-04-30,Cold TCS food item held above 41 °F; smoked or processed fish held above 38 °F; intact raw eggs held above 45 °F; or reduced oxygen packaged (ROP) TCS foods held above required temperatures except during active necessary preparation.,Critical,12.0,A,1033684,Indirecta (Tráfico)
40397676,MORTON'S THE STEAKHOUSE,Manhattan,5,EAST   45 STREET,10017,40.75523146977,-73.97906512711,Steakhouse,2025-03-13,"Food, supplies, or equipment not protected from potential source of contamination during storage, preparation, transportation, display, service or from customer’s refillable, reusable container. Condiments not in single-service containers or dispensed directly by the vendor.",Critical,13.0,A,1035389,Indirecta (Tráfico)
40397700,THE MERCURY LOUNGE,Manhattan,217,EAST HOUSTON STREET,10002,40.72232563386,-73.98665161438,American,2025-11-06,"Non-food contact surface or equipment made of unacceptable material, not kept clean, or not properly sealed, raised, spaced or movable to allow accessibility for cleaning on all sides, above and underneath the unit.",Not Critical,13.0,A,1005422,Indirecta (Tráfico)
40397797,TOAD HALL,Manhattan,57,GRAND STREET,10013,40.72224401378,-74.00351386799,American,2025-10-01,"Non-food contact surface or equipment made of unacceptable material, not kept clean, or not properly sealed, raised, spaced or movable to allow accessibility for cleaning on all sides, above and underneath the unit.",Not Critical,2.0,A,1002964,Indirecta (Tráfico)
40397886,LANDMARK COFFEE SHOP,Manhattan,158,GRAND STREET,10013,40.7198972847,-73.99874818368,American,2025-05-12,"Non-food contact surface or equipment made of unacceptable material, not kept clean, or not properly sealed, raised, spaced or movable to allow accessibility for cleaning on all sides, above and underneath the unit.",Not Critical,7.0,A,1007008,Indirecta (Tráfico)
40398306,LA GIOCONDA,Manhattan,226,EAST   53 STREET,10022,40.75737275347,-73.968647211,Italian,2024-06-04,"Food contact surface not properly washed, rinsed and sanitized after each use and following any activity when contamination may have occurred.",Critical,12.0,A,1038540,Indirecta (Tráfico)
40398434,CURRY IN A HURRY,Manhattan,119,LEXINGTON AVENUE,10016,40.74277629464,-73.98234222254,Indian,2024-07-09,"Establishment is not free of harborage or conditions conducive to rodents, insects or other pests.",Not Critical,20.0,Sin Calificación,1018214,Indirecta (Tráfico)
40398561,TOM & JERRY'S,Manhattan,288,ELIZABETH STREET,10012,40.72475258944,-73.993311132,American,2025-08-20,"Filth flies or food/refuse/sewage associated with (FRSA) flies or other nuisance pests in establishment’s food and/or non-food areas. FRSA flies include house flies, blow flies, bottle flies, flesh flies, drain flies, Phorid flies and fruit flies.",Critical,12.0,A,1008190,Indirecta (Tráfico)
40398578,DYCKMAN BAR,Manhattan,221,DYCKMAN STREET,10034,40.86568095928,-73.9274337168,American,2024-09-17,Smoking or electronic cigarette use allowed in prohibited area,Not Applicable,0.0,Sin Calificación,1064934,Indirecta (Tráfico)
40398586,JOSEPH'S RISTORANTE,Manhattan,3,HANOVER SQUARE,10004,40.70480065751,-74.00962272817,Italian,2025-05-22,"Non-food contact surface or equipment made of unacceptable material, not kept clean, or not properly sealed, raised, spaced or movable to allow accessibility for cleaning on all sides, above and underneath the unit.",Not Critical,7.0,A,1000831,Indirecta (Tráfico)
40398690,DOC HOLLIDAY'S,Manhattan,141,AVENUE A,10009,40.72710924549,-73.98277573376,American,2024-04-04,"Non-food contact surface or equipment made of unacceptable material, not kept clean, or not properly sealed, raised, spaced or movable to allow accessibility for cleaning on all sides, above and underneath the unit.",Not Critical,10.0,A,1077639,Indirecta (Tráfico)
40398811,RICK'S CABARET,Manhattan,50,WEST   33 STREET,10001,40.74864523784,-73.98717685847,American,2025-09-18,"Dishwashing and ware washing: Cleaning and sanitizing of tableware, including dishes, utensils, and equipment deficient.",Not Critical,12.0,A,1015857,Indirecta (Tráfico)
40398989,FRESCO,Manhattan,34,EAST   52 STREET,10022,40.75894691109,-73.97432446726,Italian,2024-11-20,Personal cleanliness is inadequate. Outer garment soiled with possible contaminant. Effective hair restraint not worn where required. Jewelry worn on hands or arms. Fingernail polish worn or fingernails not kept clean and trimmed.,Critical,13.0,A,1035474,Indirecta (Tráfico)
40399174,GIGINO TRATTORIA,Manhattan,323,GREENWICH STREET,10013,40.71737983997,-74.01070316483,Italian,2025-05-17,Sin Violaciones Registradas,Not Applicable,0.0,Sin Calificación,1001519,Indirecta (Tráfico)
40399279,POMODORO RISTORANTE,Manhattan,229,COLUMBUS AVENUE,10023,40.77638265104,-73.97952422085,Italian,2025-06-04,"Pesticide not properly labeled or used by unlicensed individual. Pesticide, other toxic chemical improperly used/stored. Unprotected, unlocked bait station used.",Not Critical,64.0,Sin Calificación,1028586,Indirecta (Tráfico)
40399329,ARTE,Manhattan,21,EAST    9 STREET,10003,40.73234742997,-73.99472478754,Italian,2025-01-07,Wash hands sign not posted near or above hand washing sink.,Not Critical,6.0,A,1009240,Indirecta (Tráfico)
40399472,OLIVE GARDEN,Manhattan,2,TIMES SQUARE,10036,40.75930285819,-73.98485738273,Italian,2024-12-18,"Filth flies or food/refuse/sewage associated with (FRSA) flies or other nuisance pests in establishment’s food and/or non-food areas. FRSA flies include house flies, blow flies, bottle flies, flesh flies, drain flies, Phorid flies and fruit flies.",Critical,13.0,A,1024757,Indirecta (Tráfico)
40399560,SARDI'S RESTAURANT,Manhattan,234,WEST   44 STREET,10036,40.7579143198,-73.98742052044,American,2024-04-18,Food worker/food vendor does not use utensil or other barrier to eliminate bare hand contact with food that will not receive adequate additional heat treatment.,Critical,13.0,A,1024707,Indirecta (Tráfico)
40399569,JUDGE ROY BEAN,Manhattan,38,WEST   56 STREET,10019,40.76283655347,-73.97579579092,American,2024-09-09,"Establishment is not free of harborage or conditions conducive to rodents, insects or other pests.",Not Critical,13.0,A,1034845,Indirecta (Tráfico)
40399620,LA LINEA,Manhattan,15,FIRST AVENUE,10003,40.72336334239,-73.98836507663,American,2025-06-03,"Food contact surface not properly washed, rinsed and sanitized after each use and following any activity when contamination may have occurred.",Critical,13.0,A,1006098,Indirecta (Tráfico)
40399817,NOVITA,Manhattan,102,EAST   22 STREET,10010,40.73927177208,-73.98629095557,Italian,2025-01-27,Cold TCS food item held above 41 °F; smoked or processed fish held above 38 °F; intact raw eggs held above 45 °F; or reduced oxygen packaged (ROP) TCS foods held above required temperatures except during active necessary preparation.,Critical,13.0,A,1018008,Indirecta (Tráfico)
40399834,HANGAWI,Manhattan,12,EAST   32 STREET,10016,40.7468224196,-73.98475196033,Korean,2025-10-16,"Establishment is not free of harborage or conditions conducive to rodents, insects or other pests.",Not Critical,22.0,Sin Calificación,1017002,Indirecta (Tráfico)
40399852,HANGAR BAR,Manhattan,115,CHRISTOPHER STREET,10014,40.73322025964,-74.00539435453,American,2023-02-25,"Non-food contact surface or equipment made of unacceptable material, not kept clean, or not properly sealed, raised, spaced or movable to allow accessibility for cleaning on all sides, above and underneath the unit.",Not Critical,13.0,A,1011176,Indirecta (Tráfico)
40400039,CAFE GITANE,Manhattan,242,MOTT STREET,10012,40.72326225801,-73.99479405618,French,2025-03-20,"Food, supplies, or equipment not protected from potential source of contamination during storage, preparation, transportation, display, service or from customer’s refillable, reusable container. Condiments not in single-service containers or dispensed directly by the vendor.",Critical,13.0,A,1007914,Indirecta (Tráfico)
40400155,BUS STOP CAFE,Manhattan,597,HUDSON STREET,10014,40.73695860614,-74.00585293368,American,2024-09-30,"Filth flies or food/refuse/sewage associated with (FRSA) flies or other nuisance pests in establishment’s food and/or non-food areas. FRSA flies include house flies, blow flies, bottle flies, flesh flies, drain flies, Phorid flies and fruit flies.",Critical,12.0,A,1011374,Indirecta (Tráfico)
40400453,CAFE EIGHTY TWO,Manhattan,2282,BROADWAY,10024,40.78595888668,-73.9783873687,American,2025-11-21,"Food contact surface not properly washed, rinsed and sanitized after each use and following any activity when contamination may have occurred.",Critical,12.0,A,1076247,Indirecta (Tráfico)
40400473,DOMINO'S,Manhattan,170,WEST   23 STREET,10011,40.74366957679,-73.9946553198,Pizza,2024-10-09,"Non-food contact surface or equipment made of unacceptable material, not kept clean, or not properly sealed, raised, spaced or movable to allow accessibility for cleaning on all sides, above and underneath the unit.",Not Critical,9.0,A,1068238,Indirecta (Tráfico)
40400686,PEKING DUCK HOUSE,Manhattan,236,EAST   53 STREET,10022,40.75730683575,-73.9684884209,Chinese,2024-03-22,Anti-siphonage or back-flow prevention device not provided where required; equipment or floor not properly drained; sewage disposal system in disrepair or not functioning properly. Condensation or liquid waste improperly disposed of.,Not Critical,11.0,Z,1038536,Indirecta (Tráfico)
40400710,IL BUCO,Manhattan,47,BOND STREET,10012,40.7260206459,-73.99288527527,Italian,2025-08-13,"Food contact surface not properly washed, rinsed and sanitized after each use and following any activity when contamination may have occurred.",Critical,8.0,A,1008434,Indirecta (Tráfico)
40400754,RYAN MAGUIRE'S BAR & RESTAURANT,Manhattan,28,CLIFF STREET,10038,40.70822367241,-74.00519033719,American,2024-06-25,TCS food removed from cold holding or prepared from or combined with ingredients at room temperature not cooled by an approved method to 41 °F or below within 4 hours.,Critical,10.0,A,1001173,Indirecta (Tráfico)
40400962,WHITE CASTLE,Manhattan,351,EAST  103 STREET,10029,40.78803517378,-73.94229228374,Hamburgers,2025-11-07,Cold TCS food item held above 41 °F; smoked or processed fish held above 38 °F; intact raw eggs held above 45 °F; or reduced oxygen packaged (ROP) TCS foods held above required temperatures except during active necessary preparation.,Critical,9.0,A,1084591,Indirecta (Tráfico)
40401025,ALTESI DOWNTOWN RISTORANTE,Manhattan,200,SPRING STREET,10012,40.72518092148,-74.00326869121,Italian,2024-09-09,"Non-food contact surface or equipment made of unacceptable material, not kept clean, or not properly sealed, raised, spaced or movable to allow accessibility for cleaning on all sides, above and underneath the unit.",Not Critical,13.0,A,1007353,Indirecta (Tráfico)
40401093,FRENCH ROAST,Manhattan,2340,BROADWAY,10024,40.78767958083,-73.97702176425,French,2025-01-07,"Food, supplies, or equipment not protected from potential source of contamination during storage, preparation, transportation, display, service or from customer’s refillable, reusable container. Condiments not in single-service containers or dispensed directly by the vendor.",Critical,13.0,A,1033133,Indirecta (Tráfico)
40401160,LA CABANA SALVADORENA RESTAURANT,Manhattan,4384,BROADWAY,10040,40.85442580445,-73.93360577514,Latin American,2025-10-28,"Single service article not provided. Single service article reused or not protected from contamination when transported, stored, dispensed. Drinking straws not completely enclosed in wrapper or dispensed from a sanitary device.",Not Critical,9.0,A,1064037,Directa (Rivales)
40401173,BIG BAR,Manhattan,73,EAST    7 STREET,10003,40.7273924816,-73.98672636244,American,2025-09-02,"Toilet facility not maintained or provided with toilet paper, waste receptacle or self-closing door.",Not Critical,12.0,A,1006347,Indirecta (Tráfico)
40401422,BROADWAY DIVE,Manhattan,2662,BROADWAY,10025,40.79797883385,-73.96933953471,American,2024-06-13,"Raw, cooked or prepared food is adulterated, contaminated, cross-contaminated, or not discarded in accordance with HACCP plan.",Critical,9.0,A,1056505,Indirecta (Tráfico)
40401453,JAKE'S DILEMMA,Manhattan,430,AMSTERDAM AVENUE,10024,40.78421855311,-73.97755017489,American,2025-10-28,"Filth flies or food/refuse/sewage associated with (FRSA) flies or other nuisance pests in establishment’s food and/or non-food areas. FRSA flies include house flies, blow flies, bottle flies, flesh flies, drain flies, Phorid flies and fruit flies.",Critical,13.0,A,1032668,Indirecta (Tráfico)
40401821,THREE DECKER RESTAURANT,Manhattan,1746,2 AVENUE,10128,40.78100923258,-73.94944068583,American,2025-01-27,"Wiping cloths not stored clean and dry, or in a sanitizing solution, between uses.",Critical,10.0,A,1050200,Indirecta (Tráfico)
40401834,72ND EATERY,Manhattan,261,COLUMBUS AVENUE STORE    2,10023,40.77755725066,-73.97867173881,American,2025-06-30,"Non-food contact surface or equipment made of unacceptable material, not kept clean, or not properly sealed, raised, spaced or movable to allow accessibility for cleaning on all sides, above and underneath the unit.",Not Critical,11.0,A,1028631,Indirecta (Tráfico)
40401895,JOHNNY'S BAR,Manhattan,90,GREENWICH AVENUE,10011,40.73773825429,-74.00179703774,American,2024-10-16,"Properly scaled and calibrated thermometer or thermocouple not provided or not readily accessible in food preparation and hot/cold holding areas to measure temperatures of TCS foods during cooking, cooling, reheating, and holding.",Critical,7.0,A,1011082,Indirecta (Tráfico)
40401934,BROOKLYN DINER,Manhattan,888,7 AVENUE,10106,40.76500853812,-73.98041578937,American,2024-10-18,"Wiping cloths not stored clean and dry, or in a sanitizing solution, between uses.",Critical,7.0,A,1024895,Indirecta (Tráfico)
40402026,ESTANCIA 460,Manhattan,460,GREENWICH STREET,10013,40.72372859375,-74.00949198505,Latin American,2025-04-15,"Food contact surface not properly washed, rinsed and sanitized after each use and following any activity when contamination may have occurred.",Critical,10.0,A,1002925,Directa (Rivales)
40402172,LOMBARDI'S,Manhattan,32,SPRING STREET,10012,40.72168405299,-73.99566001279,Pizza,2024-11-12,"Establishment is not free of harborage or conditions conducive to rodents, insects or other pests.",Not Critical,12.0,A,1007181,Indirecta (Tráfico)
40402365,MICHAEL'S,Manhattan,24,WEST   55 STREET,10019,40.76207628214,-73.97592241243,American,2025-02-12,Anti-siphonage or back-flow prevention device not provided where required; equipment or floor not properly drained; sewage disposal system in disrepair or not functioning properly. Condensation or liquid waste improperly disposed of.,Not Critical,8.0,A,1080441,Indirecta (Tráfico)
40402368,TIRO A SEGNO OF NEW YORK,Manhattan,77,MACDOUGAL STREET,10012,40.72872445028,-74.00157309651,Italian,2025-05-28,"Establishment is not free of harborage or conditions conducive to rodents, insects or other pests.",Not Critical,9.0,A,1080053,Indirecta (Tráfico)
40402369,COLONY CLUB,Manhattan,564,PARK AVENUE,10065,40.76504424495,-73.96825370629,American,2024-10-18,Hot TCS food item not held at or above 140 °F.,Critical,12.0,A,1040899,Indirecta (Tráfico)
40402375,WOMENS NATL. REPUBLICAN CLUB,Manhattan,3,WEST   51 STREET,10019,40.75929057969,-73.9770315956,American,2025-05-21,Anti-siphonage or back-flow prevention device not provided where required; equipment or floor not properly drained; sewage disposal system in disrepair or not functioning properly. Condensation or liquid waste improperly disposed of.,Not Critical,6.0,A,1034515,Indirecta (Tráfico)
40402376,THE CENTURY ASSOCIATION,Manhattan,7,WEST   43 STREET,10036,40.75441661458,-73.98101085973,American,2024-10-23,"Design, construction, materials used or maintenance of food contact surface improper. Surface not easily cleanable, sanitized and maintained.",Not Critical,6.0,A,1034208,Indirecta (Tráfico)
40402377,REGENCY WHIST CLUB,Manhattan,15,EAST   67 STREET,10065,40.76889519619,-73.96846125538,American,2025-05-20,"Accurate thermometer not provided or properly located in refrigerated, cold storage or hot holding equipment",Not Critical,21.0,B,1041205,Indirecta (Tráfico)
40402393,HARVARD CLUB,Manhattan,27,WEST   44 STREET,10036,40.75523729832,-73.98101423433,American,2024-09-19,"Non-food contact surface or equipment made of unacceptable material, not kept clean, or not properly sealed, raised, spaced or movable to allow accessibility for cleaning on all sides, above and underneath the unit.",Not Critical,3.0,A,1034223,Indirecta (Tráfico)
40402397,THE RIVER CLUB,Manhattan,447,EAST   52 STREET,10022,40.75468158264,-73.9641836162,American,2024-04-18,"Food contact surface not properly washed, rinsed and sanitized after each use and following any activity when contamination may have occurred.",Critical,7.0,A,1040155,Indirecta (Tráfico)
40402423,KNICKERBOCKER CLUB,Manhattan,2,EAST   62 STREET,10065,40.76602769824,-73.97141202804,American,2024-09-17,Anti-siphonage or back-flow prevention device not provided where required; equipment or floor not properly drained; sewage disposal system in disrepair or not functioning properly. Condensation or liquid waste improperly disposed of.,Not Critical,13.0,A,1040868,Indirecta (Tráfico)
40402424,ANGLERS CLUB OF NEW YORK,Manhattan,101,BROAD STREET,10004,40.70336770718,-74.01157010716,American,2024-07-08,"Non-food contact surface or equipment made of unacceptable material, not kept clean, or not properly sealed, raised, spaced or movable to allow accessibility for cleaning on all sides, above and underneath the unit.",Not Critical,5.0,A,1086063,Indirecta (Tráfico)
40402428,DOWN TOWN ASSOCIATION,Manhattan,60,PINE STREET,10005,40.70651624537,-74.0082596015,American,2025-10-21,"Dishwashing and ware washing: Cleaning and sanitizing of tableware, including dishes, utensils, and equipment deficient.",Not Critical,26.0,N,1001008,Indirecta (Tráfico)
40402465,THE UNION LEAGUE CLUB,Manhattan,38,EAST   37 STREET,10016,40.74945135798,-73.98110250917,American,2024-12-20,Personal cleanliness is inadequate. Outer garment soiled with possible contaminant. Effective hair restraint not worn where required. Jewelry worn on hands or arms. Fingernail polish worn or fingernails not kept clean and trimmed.,Critical,11.0,A,1017184,Indirecta (Tráfico)
40402466,LOTOS CLUB GRILL ROOM,Manhattan,5,EAST   66 STREET,10065,40.76848374455,-73.96942897977,American,2025-09-08,"Establishment is not free of harborage or conditions conducive to rodents, insects or other pests.",Not Critical,11.0,A,1041161,Indirecta (Tráfico)
40402527,MADISON SQUARE,Manhattan,51,MADISON AVENUE,10010,40.74301564199,-73.98640205493,American,2025-07-01,"Non-food contact surface or equipment made of unacceptable material, not kept clean, or not properly sealed, raised, spaced or movable to allow accessibility for cleaning on all sides, above and underneath the unit.",Not Critical,6.0,A,1016880,Indirecta (Tráfico)
40402610,YALE CLUB,Manhattan,50,VANDERBILT AVENUE,10017,40.75397402495,-73.97725360877,American,2025-10-20,Wash hands sign not posted near or above hand washing sink.,Not Critical,42.0,Sin Calificación,1035374,Indirecta (Tráfico)
40402755,THE UNIVERSITY CLUB,Manhattan,1,WEST   54 STREET,10019,40.76124460606,-73.97585412827,American,2025-12-04,"Food, supplies, or equipment not protected from potential source of contamination during storage, preparation, transportation, display, service or from customer’s refillable, reusable container. Condiments not in single-service containers or dispensed directly by the vendor.",Critical,10.0,A,1034800,Indirecta (Tráfico)
40402756,THE UNIVERSITY CLUB,Manhattan,1,WEST   54 STREET,10019,40.76124460606,-73.97585412827,American,2025-03-31,"Non-food contact surface or equipment made of unacceptable material, not kept clean, or not properly sealed, raised, spaced or movable to allow accessibility for cleaning on all sides, above and underneath the unit.",Not Critical,2.0,A,1034800,Indirecta (Tráfico)
40402785,HARMONIE CLUB,Manhattan,4,EAST   60 STREET,10022,40.76471314332,-73.97215985967,American,2024-10-21,"Non-food contact surface or equipment made of unacceptable material, not kept clean, or not properly sealed, raised, spaced or movable to allow accessibility for cleaning on all sides, above and underneath the unit.",Not Critical,4.0,A,1040764,Indirecta (Tráfico)
40402788,CBS EMPLOYEE CAFETERIA,Manhattan,524,WEST   57 STREET,10019,40.76973625067,-73.99007181255,American,2024-10-24,"Filth flies or food/refuse/sewage associated with (FRSA) flies or other nuisance pests in establishment’s food and/or non-food areas. FRSA flies include house flies, blow flies, bottle flies, flesh flies, drain flies, Phorid flies and fruit flies.",Critical,6.0,A,1027069,Indirecta (Tráfico)
40402893,COLUMBUS CITIZENS FOUNDATION,Manhattan,8,EAST   69 STREET,10021,40.77024544279,-73.96783603539,Italian,2023-05-19,Hot TCS food item not held at or above 140 °F.,Critical,24.0,N,1041286,Indirecta (Tráfico)
40403579,THE TAP ROOM,Manhattan,1,WEST   54 STREET,10019,40.76124460606,-73.97585412827,American,2024-03-13,Cold TCS food item held above 41 °F; smoked or processed fish held above 38 °F; intact raw eggs held above 45 °F; or reduced oxygen packaged (ROP) TCS foods held above required temperatures except during active necessary preparation.,Critical,7.0,A,1034800,Indirecta (Tráfico)
40403586,THE UNIVERSITY CLUB,Manhattan,1,WEST   54 STREET,10019,40.76124460606,-73.97585412827,American,2025-03-31,"Establishment is not free of harborage or conditions conducive to rodents, insects or other pests.",Not Critical,13.0,A,1034800,Indirecta (Tráfico)
40403721,SIMPSON THACHER AND BARTLET CAFE,Manhattan,425,LEXINGTON AVENUE,10017,40.75241734621,-73.97531955335,American,2025-10-08,Hot TCS food item not held at or above 140 °F.,Critical,22.0,Sin Calificación,1036162,Indirecta (Tráfico)
40403768,CLEARY GOTTLIEB,Manhattan,1,LIBERTY PLAZA,10006,40.70942271685,-74.011102256,American,2025-07-10,Food worker/food vendor does not use utensil or other barrier to eliminate bare hand contact with food that will not receive adequate additional heat treatment.,Critical,13.0,A,1001068,Indirecta (Tráfico)
40404024,THE PENN CLUB,Manhattan,30,WEST   44 STREET,10036,40.75524828928,-73.98108642042,American,2024-10-21,"Food contact surface not properly washed, rinsed and sanitized after each use and following any activity when contamination may have occurred.",Critical,10.0,A,1034215,Indirecta (Tráfico)
40404080,LAZARD FRERES,Manhattan,30,ROCKEFELLER PLAZA,10112,40.7587474378,-73.97869222362,American,2024-10-04,"Design, construction, materials used or maintenance of food contact surface improper. Surface not easily cleanable, sanitized and maintained.",Not Critical,9.0,A,1076262,Indirecta (Tráfico)
40423705,ZARO'S BAKERY,Manhattan,89,EAST   42 STREET,10017,40.75209393316,-73.97760435438,American,2024-07-02,"Food, supplies, and equipment not protected from potential source of contamination during storage, preparation, transportation, display or service.",Critical,12.0,A,1035381,Indirecta (Tráfico)
40424933,CREATIVE CAKES,Manhattan,400,EAST   74 STREET,10021,40.76896470072,-73.95470632857,American,2025-10-24,"Dishwashing and ware washing: Cleaning and sanitizing of tableware, including dishes, utensils, and equipment deficient.",Not Critical,5.0,A,1045887,Indirecta (Tráfico)
40482586,BOOTH THEATRE,Manhattan,220,WEST   45 STREET,10036,40.75855654221,-73.98696197418,American,2023-11-01,"Non-food contact surface or equipment made of unacceptable material, not kept clean, or not properly sealed, raised, spaced or movable to allow accessibility for cleaning on all sides, above and underneath the unit.",Not Critical,2.0,A,1080841,Indirecta (Tráfico)
40482591,MAJESTIC THEATRE,Manhattan,245,WEST   44 STREET,10036,40.75808178794,-73.98777062143,American,2023-01-12,"Non-food contact surface or equipment made of unacceptable material, not kept clean, or not properly sealed, raised, spaced or movable to allow accessibility for cleaning on all sides, above and underneath the unit.",Not Critical,10.0,A,1024712,Indirecta (Tráfico)
40482592,BERNARD B. JACOBS THEATRE,Manhattan,242,WEST   45 STREET,10036,40.75869656216,-73.98729403441,American,2024-04-17,"Non-food contact surface or equipment made of unacceptable material, not kept clean, or not properly sealed, raised, spaced or movable to allow accessibility for cleaning on all sides, above and underneath the unit.",Not Critical,7.0,A,1024716,Indirecta (Tráfico)
40482593,SHUBERT THEATRE,Manhattan,225,WEST   44 STREET,10036,40.75795549671,-73.98747104716,American,2024-05-07,"Food, supplies, or equipment not protected from potential source of contamination during storage, preparation, transportation, display, service or from customer’s refillable, reusable container. Condiments not in single-service containers or dispensed directly by the vendor.",Critical,5.0,A,1080842,Indirecta (Tráfico)
40482598,IMPERIAL THEATRE,Manhattan,249,WEST   45 STREET,10036,40.75872126698,-73.98731207793,American,2024-05-07,"Food contact surface not properly washed, rinsed and sanitized after each use and following any activity when contamination may have occurred.",Critical,8.0,A,1024725,Indirecta (Tráfico)
40482599,GERALD SCHOENFELD THEATRE,Manhattan,236,WEST   45 STREET,10036,40.75865812551,-73.98720380059,American,2025-07-02,Anti-siphonage or back-flow prevention device not provided where required; equipment or floor not properly drained; sewage disposal system in disrepair or not functioning properly. Condensation or liquid waste improperly disposed of.,Not Critical,7.0,A,1024715,Indirecta (Tráfico)
40483540,WALTER READE THEATER,Manhattan,70,LINCOLN CENTER PLAZA,10023,40.77399000173,-73.98447854006,American,2024-09-18,"Food contact surface not properly washed, rinsed and sanitized after each use and following any activity when contamination may have occurred.",Critical,28.0,Sin Calificación,1077844,Indirecta (Tráfico)
40483596,GERSHWIN THEATRE,Manhattan,222,WEST   51 STREET,10019,40.76225886481,-73.98413112962,American,2025-05-21,"Establishment is not free of harborage or conditions conducive to rodents, insects or other pests.",Not Critical,13.0,A,1024812,Indirecta (Tráfico)
40483597,RICHARD ROGERS THEATRE,Manhattan,226,WEST   46 STREET,10036,40.75904776627,-73.98621106662,American,2024-04-10,"Establishment is not free of harborage or conditions conducive to rodents, insects or other pests.",Not Critical,26.0,N,1024728,Indirecta (Tráfico)
40483602,NEDERLANDER THEATRE,Manhattan,208,WEST   41 STREET,10036,40.75560878803,-73.98803817883,American,2023-11-01,"Non-food contact surface or equipment made of unacceptable material, not kept clean, or not properly sealed, raised, spaced or movable to allow accessibility for cleaning on all sides, above and underneath the unit.",Not Critical,13.0,A,1024651,Indirecta (Tráfico)
40483694,MINSKOFF THEATRE,Manhattan,200,WEST   45 STREET,10036,40.75803214502,-73.98571676067,American,2024-04-24,"Non-food contact surface or equipment made of unacceptable material, not kept clean, or not properly sealed, raised, spaced or movable to allow accessibility for cleaning on all sides, above and underneath the unit.",Not Critical,10.0,A,1024714,Indirecta (Tráfico)
40483695,MARQUIS THEATRE,Manhattan,1535,BROADWAY,10036,40.75825992874,-73.98546764747,American,2024-05-07,"Sanitized equipment or utensil, including in-use food dispensing utensil, improperly used or stored.",Critical,13.0,A,1024727,Indirecta (Tráfico)
40483697,LUNT-FONTANNE THEATRE,Manhattan,205,WEST   46 STREET,10036,40.75889126439,-73.98579598825,American,2025-07-30,"Dishwashing and ware washing: Cleaning and sanitizing of tableware, including dishes, utensils, and equipment deficient.",Not Critical,5.0,A,1024739,Indirecta (Tráfico)
40510335,DEVON & BLAKELY,Manhattan,250,PARK AVENUE,10177,40.75501119761,-73.97556764057,American,2025-07-08,"Sanitized equipment or utensil, including in-use food dispensing utensil, improperly used or stored.",Critical,10.0,A,1035405,Indirecta (Tráfico)
40510439,LA ISLA,Manhattan,1883,THIRD AVENUE,10029,40.79033961396,-73.94555495912,Latin American,2025-01-14,"Food contact surface not properly washed, rinsed and sanitized after each use and following any activity when contamination may have occurred.",Critical,12.0,A,1052385,Directa (Rivales)
40510827,TAJIN,Manhattan,85,GREENWICH STREET,10006,40.70771793564,-74.01368449576,Mexican,2024-10-08,"Non-food contact surface or equipment made of unacceptable material, not kept clean, or not properly sealed, raised, spaced or movable to allow accessibility for cleaning on all sides, above and underneath the unit.",Not Critical,10.0,A,1000799,Directa (Rivales)
40512002,RAINBOW FALAFEL,Manhattan,26,EAST   17 STREET,10003,40.73731520658,-73.99080918484,Middle Eastern,2025-01-09,"Food, supplies, or equipment not protected from potential source of contamination during storage, preparation, transportation, display, service or from customer’s refillable, reusable container. Condiments not in single-service containers or dispensed directly by the vendor.",Critical,13.0,A,1016089,Indirecta (Tráfico)
40512258,BLUE RIBBON SUSHI,Manhattan,119,SULLIVAN STREET,10012,40.7260537721,-74.00269508216,Japanese,2025-10-08,"Non-food contact surface or equipment made of unacceptable material, not kept clean, or not properly sealed, raised, spaced or movable to allow accessibility for cleaning on all sides, above and underneath the unit.",Not Critical,7.0,A,1007780,Indirecta (Tráfico)
40512445,BELLA BLU,Manhattan,967,LEXINGTON AVENUE,10021,40.76928332759,-73.96302046088,Italian,2024-12-19,"Lighting fixture located over, by or within food storage, preparation, service or display facility, and facility where utensils and equipment are cleaned and stored, which may shatter due to extreme heat, temperature changes or accidental contact; not fitted with shatterproof bulb or shielded and encased, with end caps or other device.",Not Critical,0.0,Sin Calificación,1042727,Indirecta (Tráfico)
40512520,CHELSEA RISTORANTE,Manhattan,108,8 AVENUE,10011,40.74067515052,-74.00183320395,Italian,2024-05-21,"Non-food contact surface or equipment made of unacceptable material, not kept clean, or not properly sealed, raised, spaced or movable to allow accessibility for cleaning on all sides, above and underneath the unit.",Not Critical,5.0,A,1081537,Indirecta (Tráfico)
40512852,DOC WATSONS,Manhattan,1490,2 AVENUE,10075,40.77241525005,-73.95570766281,American,2025-08-28,Live roaches in facility's food or non-food area.,Critical,29.0,Sin Calificación,1045228,Indirecta (Tráfico)
40512865,CONNOLLY'S PUB,Manhattan,14,EAST   47 STREET,10017,40.75628245911,-73.97771844528,Pizza,2025-06-23,"Non-food contact surface or equipment made of unacceptable material, not kept clean, or not properly sealed, raised, spaced or movable to allow accessibility for cleaning on all sides, above and underneath the unit.",Not Critical,4.0,A,1035406,Indirecta (Tráfico)
40513031,NINA'S GREAT BURRITO BAR,Manhattan,522,COLUMBUS AVENUE,10024,40.78595764323,-73.97256622257,Mexican,2025-05-01,Hot TCS food item not held at or above 140 °F.,Critical,13.0,A,1032161,Directa (Rivales)
40513184,ACE BAR,Manhattan,531,EAST    5 STREET,10009,40.72450457615,-73.98355208445,American,2025-05-14,"Food contact surface not properly washed, rinsed and sanitized after each use and following any activity when contamination may have occurred.",Critical,12.0,A,1005068,Indirecta (Tráfico)
40513609,SKYLIGHT DINER,Manhattan,402,WEST   34 STREET,10001,40.75347942631,-73.99656027467,American,2025-04-30,Cold TCS food item held above 41 °F; smoked or processed fish held above 38 °F; intact raw eggs held above 45 °F; or reduced oxygen packaged (ROP) TCS foods held above required temperatures except during active necessary preparation.,Critical,13.0,A,1012849,Indirecta (Tráfico)
40513633,ARTE CAFE / EL COCO,Manhattan,104,WEST   73 STREET,10023,40.77829561421,-73.97880509789,Italian,2025-09-30,"Sanitized equipment or utensil, including in-use food dispensing utensil, improperly used or stored.",Critical,10.0,A,1029964,Indirecta (Tráfico)
40513798,SOHO GRAND HOTEL,Manhattan,310,WEST BROADWAY,10013,40.72170601086,-74.00434720392,American,2025-05-16,"Sanitized equipment or utensil, including in-use food dispensing utensil, improperly used or stored.",Critical,8.0,A,1087764,Indirecta (Tráfico)
40514147,CREATIVE EDGE CATERERS,Manhattan,110,BARROW STREET,10014,40.73184768905,-74.00850089398,American,2024-11-27,"Garbage receptacle not pest or water resistant, with tight-fitting lids, and covered except while in active use. Garbage receptacle and cover not cleaned after emptying and prior to reuse. Garbage, refuse and other solid and liquid waste not collected, stored, removed and disposed of so as to prevent a nuisance.",Not Critical,12.0,A,1010421,Indirecta (Tráfico)
40515448,FREDDIE & PEPPER'S,Manhattan,303,AMSTERDAM AVENUE,10023,40.78009922303,-73.98053049072,Pizza,2025-01-29,Evidence of mice or live mice in establishment's food or non-food areas.,Critical,12.0,A,1030048,Indirecta (Tráfico)
40523865,POPEYES,Manhattan,2730,FREDRICK DOUGLAS BOULEVARD,10039,40.82292616711,-73.94183194448,Chicken,2024-10-16,"Establishment is not free of harborage or conditions conducive to rodents, insects or other pests.",Not Critical,11.0,A,1088715,Indirecta (Tráfico)
40524888,SISTERS CUISINE,Manhattan,1931,MADISON AVENUE,10035,40.80504365383,-73.94085067243,Caribbean,2025-05-06,"Wiping cloths not stored clean and dry, or in a sanitizing solution, between uses.",Critical,8.0,A,1054006,Indirecta (Tráfico)
40526406,CLUB MACANUDO (CIGAR BAR),Manhattan,26,EAST   63 STREET,10065,40.76598325401,-73.96936515114,American,2024-05-23,"Establishment is not free of harborage or conditions conducive to rodents, insects or other pests.",Not Critical,55.0,Sin Calificación,1040935,Indirecta (Tráfico)
40528180,"BOBBY VAN'S , LEA WINE BAR",Manhattan,230,PARK AVENUE,10169,40.75450075314,-73.97595042717,Steakhouse,2024-10-10,Anti-siphonage or back-flow prevention device not provided where required; equipment or floor not properly drained; sewage disposal system in disrepair or not functioning properly. Condensation or liquid waste improperly disposed of.,Not Critical,13.0,A,1036185,Indirecta (Tráfico)
40530159,MONA'S,Manhattan,224,AVENUE B,10009,40.72906276032,-73.97830486779,American,2024-10-26,"Non-food contact surface or equipment made of unacceptable material, not kept clean, or not properly sealed, raised, spaced or movable to allow accessibility for cleaning on all sides, above and underneath the unit.",Not Critical,2.0,A,1005248,Indirecta (Tráfico)
40530583,CORNER GOURMET,Manhattan,66,WEST BROADWAY,10007,40.71464337504,-74.00993437853,American,2025-12-11,Sin Violaciones Registradas,Not Applicable,0.0,Sin Calificación,1001418,Indirecta (Tráfico)
40530791,TAP-A-KEG,Manhattan,2731,BROADWAY,10025,40.80019075838,-73.96808156789,American,2024-07-17,"Food contact surface not properly washed, rinsed and sanitized after each use and following any activity when contamination may have occurred.",Critical,7.0,A,1056584,Indirecta (Tráfico)
40535399,VON,Manhattan,3,BLEECKER STREET,10012,40.72530423587,-73.99247766685,American,2025-07-16,"Raw, cooked or prepared food is adulterated, contaminated, cross-contaminated, or not discarded in accordance with HACCP plan.",Critical,7.0,A,1084925,Indirecta (Tráfico)
40535738,NEIL SIMON THEATRE,Manhattan,250,WEST   52 STREET,10019,40.76306307335,-73.98409122851,American,2023-02-08,Sin Violaciones Registradas,Not Applicable,0.0,A,1024820,Indirecta (Tráfico)
40537494,810 DELI & CAFE,Manhattan,810,7 AVENUE,10019,40.76263186017,-73.9821456155,American,2024-12-02,"Wiping cloths not stored clean and dry, or in a sanitizing solution, between uses.",Critical,11.0,A,1024828,Indirecta (Tráfico)
40538189,EDWARD'S,Manhattan,136,WEST BROADWAY,10013,40.71680638872,-74.00821398578,American,2024-12-11,Evidence of mice or live mice in establishment's food or non-food areas.,Critical,13.0,A,1001568,Indirecta (Tráfico)
40538662,MCDONALD'S,Manhattan,4040,BROADWAY,10032,40.842549706,-73.939230554,Hamburgers,2025-03-04,"Non-food contact surface or equipment made of unacceptable material, not kept clean, or not properly sealed, raised, spaced or movable to allow accessibility for cleaning on all sides, above and underneath the unit.",Not Critical,9.0,A,1063459,Indirecta (Tráfico)
40538766,RED EYE GRILL,Manhattan,888,7 AVENUE,10106,40.76500853812,-73.98041578937,American,2024-04-24,Thawing procedure improper.,Not Critical,7.0,A,1024895,Indirecta (Tráfico)
